Property_ID,Full_Address,Suburb,Postcode,Property_Type,Beds,Baths,Car_Spaces,Land_Size_sqm,Raw_Price,Numeric_Price,Latitude,Longitude,URL,Last_Updated
2019918334,"47 Melbourne Road, GISBORNE VIC 3437",GISBORNE,3437,House,4,2,6,25100.0,"$1,995,000 - $2,150,000",2072500.0,-37.493595,144.60538,https://www.domain.com.au/47-melbourne-road-gisborne-vic-3437-2019918334,2026-03-09
2020078719,"1/24 Magnet Lane, NEW GISBORNE VIC 3438",NEW GISBORNE,3438,House,5,3,2,1.01,"$1,495,000",1495000.0,-37.473473,144.60188,https://www.domain.com.au/1-24-magnet-lane-new-gisborne-vic-3438-2020078719,2026-03-09
2020134073,"225 McGeorge Road, GISBORNE VIC 3437",GISBORNE,3437,House,5,3,4,53000.0,"$4,000,000 - $4,300,000",4150000.0,-37.519123,144.60765,https://www.domain.com.au/225-mcgeorge-road-gisborne-vic-3437-2020134073,2026-03-09
2020333125,"210 Brooking Road, GISBORNE VIC 3437",GISBORNE,3437,House,4,2,4,42700.0,"$2,950,000 - $3,200,000",3075000.0,-37.512184,144.61536,https://www.domain.com.au/210-brooking-road-gisborne-vic-3437-2020333125,2026-03-09
2020363237,"18 Joseph Avenue, NEW GISBORNE VIC 3438",NEW GISBORNE,3438,House,4,2,2,8000.0,"$1,500,000 - $1,600,000",1550000.0,-37.474495,144.60815,https://www.domain.com.au/18-joseph-avenue-new-gisborne-vic-3438-2020363237,2026-03-09
2020366503,"10 Macedon Close, NEW GISBORNE VIC 3438",NEW GISBORNE,3438,House,5,3,6,2.2,"1,680,000",1680000.0,-37.474358,144.63097,https://www.domain.com.au/10-macedon-close-new-gisborne-vic-3438-2020366503,2026-03-09
2020477991,"107 Stokes Lane East, RIDDELLS CREEK VIC 3431",RIDDELLS CREEK,3431,House,5,3,8,247900.0,"$2,500,000 - $2,750,000",2625000.0,-37.475426,144.71284,https://www.domain.com.au/107-stokes-lane-east-riddells-creek-vic-3431-2020477991,2026-03-09
2020495814,"151 Wheelwrights Road, RIDDELLS CREEK VIC 3431",RIDDELLS CREEK,3431,House,3,1,6,65963.0,"Private sale $1,780,000",1780000.0,-37.458004,144.65138,https://www.domain.com.au/151-wheelwrights-road-riddells-creek-vic-3431-2020495814,2026-03-09
2020508079,"35 Magnet Lane, NEW GISBORNE VIC 3438",NEW GISBORNE,3438,House,5,3,3,6179.0,"$1,850,000-$2,035,000",1942500.0,-37.474102,144.60199,https://www.domain.com.au/35-magnet-lane-new-gisborne-vic-3438-2020508079,2026-03-09
2020515722,"9 Wattle Grove, RIDDELLS CREEK VIC 3431",RIDDELLS CREEK,3431,House,4,2,2,900.0,"$1,150,000",1150000.0,-37.461742,144.6914,https://www.domain.com.au/9-wattle-grove-riddells-creek-vic-3431-2020515722,2026-03-09
2020547297,"20 Hurst Street, GISBORNE VIC 3437",GISBORNE,3437,House,4,3,2,1050.0,"$1,320,000",1320000.0,-37.50697,144.60245,https://www.domain.com.au/20-hurst-street-gisborne-vic-3437-2020547297,2026-03-09
2020551530,"10 Rivergum Road, RIDDELLS CREEK VIC 3431",RIDDELLS CREEK,3431,House,5,2,2,4433.0,"$1,450,000 - $1,595,000",1522500.0,-37.46508,144.66908,https://www.domain.com.au/10-rivergum-road-riddells-creek-vic-3431-2020551530,2026-03-09
2020590509,"6 Jacksons Creek Way, GISBORNE VIC 3437",GISBORNE,3437,House,3,2,3,2063.0,"$1,300,000 to $1,400,000",1350000.0,-37.484615,144.60085,https://www.domain.com.au/6-jacksons-creek-way-gisborne-vic-3437-2020590509,2026-03-09
2020617313,"2 Sansom Street, GISBORNE VIC 3437",GISBORNE,3437,House,4,3,3,1102.0,"$700,000 - $750,000",725000.0,-37.49594,144.60085,https://www.domain.com.au/2-sansom-street-gisborne-vic-3437-2020617313,2026-03-09
2020623304,"8 Eucalypt Court, RIDDELLS CREEK VIC 3431",RIDDELLS CREEK,3431,House,4,2,3,943.0,"$890,000 - $940,000",915000.0,-37.45667,144.68042,https://www.domain.com.au/8-eucalypt-court-riddells-creek-vic-3431-2020623304,2026-03-09
2020630824,"285 Mount Eliza Road, RIDDELLS CREEK VIC 3431",RIDDELLS CREEK,3431,House,4,2,2,44.52,"$3,250,000",3250000.0,-37.40444,144.71002,https://www.domain.com.au/285-mount-eliza-road-riddells-creek-vic-3431-2020630824,2026-03-09
2020632822,"13 Jacksons Creek Way, GISBORNE VIC 3437",GISBORNE,3437,House,5,2,2,1491.0,"$1,050,000 - $1,150,000",1100000.0,-37.485897,144.60066,https://www.domain.com.au/13-jacksons-creek-way-gisborne-vic-3437-2020632822,2026-03-09
2020638749,"54 Joseph Avenue, NEW GISBORNE VIC 3438",NEW GISBORNE,3438,House,6,3,6,6393.0,"$1,695,000 - $1,795,000",1745000.0,-37.476162,144.61052,https://www.domain.com.au/54-joseph-avenue-new-gisborne-vic-3438-2020638749,2026-03-09
2020658977,"3 Parkview Terrace, RIDDELLS CREEK VIC 3431",RIDDELLS CREEK,3431,House,4,2,2,950.0,"$995,000 - $1,090,000",1042500.0,-37.459503,144.69185,https://www.domain.com.au/3-parkview-terrace-riddells-creek-vic-3431-2020658977,2026-03-09
2020661318,"9 Willowbank Road, GISBORNE VIC 3437",GISBORNE,3437,House,4,2,3,1514.0,"$2,000,000-$2,200,000",2100000.0,-37.50246,144.61046,https://www.domain.com.au/9-willowbank-road-gisborne-vic-3437-2020661318,2026-03-09
2018942143,"490 Settlement Road, SUNBURY VIC 3429",SUNBURY,3429,Acreage / Semi-Rural,4,3,4,213.67,"$6,950,000",6950000.0,-37.50604,144.72939,https://www.domain.com.au/490-settlement-road-sunbury-vic-3429-2018942143,2026-03-09
2019588895,"13 Kumbari Court, NEW GISBORNE VIC 3438",NEW GISBORNE,3438,House,4,3,4,8316.0,"$1,895,000 - $1,950,000",1922500.0,-37.477947,144.60751,https://www.domain.com.au/13-kumbari-court-new-gisborne-vic-3438-2019588895,2026-03-09
2020176387,"22 Fersfield Road, GISBORNE VIC 3437",GISBORNE,3437,House,4,2,2,3983.0,"$1,595,000 - $1,650,000",1622500.0,-37.497475,144.60292,https://www.domain.com.au/22-fersfield-road-gisborne-vic-3437-2020176387,2026-03-09
2020181785,"9 Cotton Circuit, GISBORNE VIC 3437",GISBORNE,3437,House,4,2,2,544.0,"$1,050,000 - $1,095,000",1072500.0,-37.502983,144.61052,https://www.domain.com.au/9-cotton-circuit-gisborne-vic-3437-2020181785,2026-03-09
2020203927,"64 Whittakers Lane, RIDDELLS CREEK VIC 3431",RIDDELLS CREEK,3431,House,4,2,3,8839.0,"$2,000,000 - $2,200,000",2100000.0,-37.45681,144.67479,https://www.domain.com.au/64-whittakers-lane-riddells-creek-vic-3431-2020203927,2026-03-09
2020302817,"13 Gardiner Street, GISBORNE VIC 3437",GISBORNE,3437,House,4,2,2,936.0,"$805,000 - $850,000",827500.0,-37.495728,144.60017,https://www.domain.com.au/13-gardiner-street-gisborne-vic-3437-2020302817,2026-03-09
2020309515,"23 Chessy Park Drive, NEW GISBORNE VIC 3438",NEW GISBORNE,3438,House,4,2,4,2000.0,"$1,350,000 - $1,395,000",1372500.0,-37.46514,144.60106,https://www.domain.com.au/23-chessy-park-drive-new-gisborne-vic-3438-2020309515,2026-03-09
2020312508,"5 Lauren Court, GISBORNE VIC 3437",GISBORNE,3437,House,4,2,2,1902.0,"$1,050,000 - $1,150,000",1100000.0,-37.498905,144.60057,https://www.domain.com.au/5-lauren-court-gisborne-vic-3437-2020312508,2026-03-09
2020357538,"30 View Bank Lane, RIDDELLS CREEK VIC 3431",RIDDELLS CREEK,3431,House,4,2,2,56655.0,Expression of Interest close - 31st March 3:00pm,17.0,-37.49304,144.67987,https://www.domain.com.au/30-view-bank-lane-riddells-creek-vic-3431-2020357538,2026-03-09
2020370462,"52 Williams Lane, RIDDELLS CREEK VIC 3431",RIDDELLS CREEK,3431,House,3,3,3,33400.0,"$3,000,000 - $3,300,000",3150000.0,-37.462578,144.6604,https://www.domain.com.au/52-williams-lane-riddells-creek-vic-3431-2020370462,2026-03-09
2020370703,"104 Royal Parade, RIDDELLS CREEK VIC 3431",RIDDELLS CREEK,3431,House,3,2,2,4301.0,"$1,650,000 - $1,800,000",1725000.0,-37.450497,144.66287,https://www.domain.com.au/104-royal-parade-riddells-creek-vic-3431-2020370703,2026-03-09
2020386958,"90 Royal Parade, RIDDELLS CREEK VIC 3431",RIDDELLS CREEK,3431,House,4,3,5,18332.0,PRIVATE INSPECTIONS AVAILABLE UPON REQUEST,,-37.45152,144.66264,https://www.domain.com.au/90-royal-parade-riddells-creek-vic-3431-2020386958,2026-03-09
2020426002,"125 McGeorge Road, GISBORNE VIC 3437",GISBORNE,3437,House,5,2,1,43800.0,"$1,600,000 - $1,700,000",1650000.0,-37.528767,144.60555,https://www.domain.com.au/125-mcgeorge-road-gisborne-vic-3437-2020426002,2026-03-09
2020436309,"163 Main Road, RIDDELLS CREEK VIC 3431",RIDDELLS CREEK,3431,House,3,1,0,49100.0,CONTACT AGENT!,,-37.454338,144.68813,https://www.domain.com.au/163-main-road-riddells-creek-vic-3431-2020436309,2026-03-09
2020510319,"31 Murray Road, GISBORNE VIC 3437",GISBORNE,3437,Specialist Farm,4,2,2,59.21,Under Contract!,,-37.489014,144.6507,https://www.domain.com.au/31-murray-road-gisborne-vic-3437-2020510319,2026-03-09
2020561643,"178 Peters Road, GISBORNE VIC 3437",GISBORNE,3437,Rural,4,2,6,28.63,"$1,795,000 - $1,850,000",1822500.0,-37.49273,144.63959,https://www.domain.com.au/178-peters-road-gisborne-vic-3437-2020561643,2026-03-09
2020592168,"114 Emmeline Drive, GISBORNE VIC 3437",GISBORNE,3437,House,3,2,3,2.51,"$1,675,000 - $1,750,000",1712500.0,-37.49569,144.61221,https://www.domain.com.au/114-emmeline-drive-gisborne-vic-3437-2020592168,2026-03-09
2020594165,"133 Shannons Road, MOUNT MACEDON VIC 3441",MOUNT MACEDON,3441,House,6,3,6,39000.0,"$2,195,000- $2,295,000",2245000.0,-37.418964,144.63191,https://www.domain.com.au/133-shannons-road-mount-macedon-vic-3441-2020594165,2026-03-09
2020621895,"37 Cotton Circuit, GISBORNE VIC 3437",GISBORNE,3437,House,4,3,2,1004.0,"$1,150,000 -$1,225,000",1187500.0,-37.50499,144.61255,https://www.domain.com.au/37-cotton-circuit-gisborne-vic-3437-2020621895,2026-03-09
2020623274,"20 Tullamore Street, GISBORNE VIC 3437",GISBORNE,3437,New House & Land,4,2,2,576.0,"$834,890",834890.0,-37.511013,144.61317,https://www.domain.com.au/20-tullamore-street-gisborne-vic-3437-2020623274,2026-03-09
2018923498,"Lot 2/10 Butters Close, RIDDELLS CREEK VIC 3431",RIDDELLS CREEK,3431,Vacant land,0,0,0,2008.0,"$590,000",590000.0,-37.46208,144.66801,https://www.domain.com.au/lot-2-10-butters-close-riddells-creek-vic-3431-2018923498,2026-03-09
2020285048,"417 - 419 Sutherlands Road, RIDDELLS CREEK VIC 3431",RIDDELLS CREEK,3431,Rural,6,2,8,56.66,Contact Agent,,-37.451603,144.72101,https://www.domain.com.au/417-419-sutherlands-road-riddells-creek-vic-3431-2020285048,2026-03-09
2020338062,"355 McGeorge Road, GISBORNE VIC 3437",GISBORNE,3437,House,4,2,2,840.0,"$1,120,000 - $1,170,000",1145000.0,-37.506496,144.6086,https://www.domain.com.au/355-mcgeorge-road-gisborne-vic-3437-2020338062,2026-03-09
2020352839,"6 Zig Zag Road, MOUNT MACEDON VIC 3441",MOUNT MACEDON,3441,Vacant land,0,0,0,12.14,"$1,950,000",1950000.0,-37.403423,144.60553,https://www.domain.com.au/6-zig-zag-road-mount-macedon-vic-3441-2020352839,2026-03-09
2020377535,"14 May Drive, GISBORNE VIC 3437",GISBORNE,3437,House,4,2,2,400.0,"$850,000 - $870,000",860000.0,-37.50407,144.61076,https://www.domain.com.au/14-may-drive-gisborne-vic-3437-2020377535,2026-03-09
2020430680,"9 Welsh Road, GISBORNE VIC 3437",GISBORNE,3437,Acreage / Semi-Rural,3,2,2,4.45,"$1,750,000",1750000.0,-37.52478,144.61627,https://www.domain.com.au/9-welsh-road-gisborne-vic-3437-2020430680,2026-03-09
2020440487,"10 Misty View Court, GISBORNE VIC 3437",GISBORNE,3437,Vacant land,0,0,0,10300.0,"$890,000 - $979,000",934500.0,-37.499546,144.63515,https://www.domain.com.au/10-misty-view-court-gisborne-vic-3437-2020440487,2026-03-09
2020454841,"14 Lindquist Drive, GISBORNE VIC 3437",GISBORNE,3437,House,4,3,2,576.0,"$1,020,000 - $1,070,000",1045000.0,-37.50675,144.6097,https://www.domain.com.au/14-lindquist-drive-gisborne-vic-3437-2020454841,2026-03-09
2020467201,"22 Vancleve Crescent, GISBORNE VIC 3437",GISBORNE,3437,House,4,2,2,765.0,"$995,000",995000.0,-37.50249,144.60234,https://www.domain.com.au/22-vancleve-crescent-gisborne-vic-3437-2020467201,2026-03-09
2020467603,"5 Richey Promenade, GISBORNE VIC 3437",GISBORNE,3437,Vacant land,0,0,0,839.0,"$675,000",675000.0,-37.505913,144.60797,https://www.domain.com.au/5-richey-promenade-gisborne-vic-3437-2020467603,2026-03-09
2020475538,"42 Hanrahan Street, GISBORNE VIC 3437",GISBORNE,3437,House,4,2,2,504.0,"$890,000 - $920,000",905000.0,-37.508278,144.61346,https://www.domain.com.au/42-hanrahan-street-gisborne-vic-3437-2020475538,2026-03-09
2020495809,"Saunders Rise, NEW GISBORNE VIC 3438",NEW GISBORNE,3438,Vacant land,0,0,0,6000.0,"$895,000",895000.0,-37.47242,144.60834,https://www.domain.com.au/saunders-rise-new-gisborne-vic-3438-2020495809,2026-03-09
2020523762,"Dalk Drive, GISBORNE VIC 3437",GISBORNE,3437,Vacant land,0,0,0,1960.0,"$839,000.00",419500.0,-37.509163,144.61298,https://www.domain.com.au/dalk-drive-gisborne-vic-3437-2020523762,2026-03-09
2020534967,"Lot 112 Prince Alfred Street, RIDDELLS CREEK VIC 3431",RIDDELLS CREEK,3431,Vacant land,0,0,0,8190.0,"$80,000 - $88,000",84000.0,-37.44009,144.65982,https://www.domain.com.au/lot-112-prince-alfred-street-riddells-creek-vic-3431-2020534967,2026-03-09
2020537196,"44 & 46 Tasman Road, GISBORNE VIC 3437",GISBORNE,3437,Vacant land,0,0,0,991.0,"$560,000 - $590,000",575000.0,-37.506252,144.60503,https://www.domain.com.au/44-46-tasman-road-gisborne-vic-3437-2020537196,2026-03-09
2020561266,"159 Main Road, RIDDELLS CREEK VIC 3431",RIDDELLS CREEK,3431,Vacant land,0,0,0,2675.0,"$1,200,000",1200000.0,-37.455456,144.68683,https://www.domain.com.au/159-main-road-riddells-creek-vic-3431-2020561266,2026-03-09
2020562390,"106 (lot 9) Rockglen Way, GISBORNE VIC 3437",GISBORNE,3437,Vacant land,0,0,0,20100.0,"$1,250,000",1250000.0,-37.51073,144.63062,https://www.domain.com.au/106-lot-9-rockglen-way-gisborne-vic-3437-2020562390,2026-03-09
2020599315,"22 Willowbank Road, GISBORNE VIC 3437",GISBORNE,3437,Vacant land,0,0,0,3001.0,"$895,000 - $920,000",907500.0,-37.50185,144.60811,https://www.domain.com.au/22-willowbank-road-gisborne-vic-3437-2020599315,2026-03-09
2020632626,"84 Payne Road, NEW GISBORNE VIC 3438",NEW GISBORNE,3438,Acreage / Semi-Rural,4,2,0,6.6,PRIVATE SALE | EXPRESSION OF INTEREST,,-37.46419,144.61176,https://www.domain.com.au/84-payne-road-new-gisborne-vic-3438-2020632626,2026-03-09
2020657033,"3 Leahy Circuit, GISBORNE VIC 3437",GISBORNE,3437,Vacant land,0,0,0,512.0,"$1,130,000 - $1,190,000",1160000.0,-37.509396,144.61084,https://www.domain.com.au/3-leahy-circuit-gisborne-vic-3437-2020657033,2026-03-09
2017665188,", RIDDELLS CREEK VIC 3431",RIDDELLS CREEK,3431,House,3,1,1,50.59,Contact Agent,,-37.452545,144.67532,https://www.domain.com.au/riddells-creek-vic-3431-2017665188,2026-03-09
2018173770,"Settlement Road, SUNBURY VIC 3429",SUNBURY,3429,Vacant land,0,0,0,121405.0,Contact Agent !!,,-37.508038,144.72577,https://www.domain.com.au/settlement-road-sunbury-vic-3429-2018173770,2026-03-09
2018563734,"7 Kilteely Street, GISBORNE VIC 3437",GISBORNE,3437,New House & Land,4,2,2,800.0,"From $1,232,972",1232972.0,-37.506474,144.61203,https://www.domain.com.au/7-kilteely-street-gisborne-vic-3437-2018563734,2026-03-09
2019391495,"465 Hamilton Road, NEW GISBORNE VIC 3438",NEW GISBORNE,3438,Vacant land,0,0,0,373403.0,"$1,850,000 - $1,950,000",1900000.0,-37.460045,144.6341,https://www.domain.com.au/465-hamilton-road-new-gisborne-vic-3438-2019391495,2026-03-09
2019446780,"Lot 1104 Noah Street, GISBORNE VIC 3437",GISBORNE,3437,New Home Designs,4,2,2,0.0,"$785,633",785633.0,-37.510086,144.61333,https://www.domain.com.au/lot-1104-noah-street-gisborne-vic-3437-2019446780,2026-03-09
2019569171,"64 Willowbank Road, GISBORNE VIC 3437",GISBORNE,3437,Vacant land,0,0,0,0.0,"$505,000 - $550,000",527500.0,-37.501186,144.60248,https://www.domain.com.au/64-willowbank-road-gisborne-vic-3437-2019569171,2026-03-09
2019627016,"1545 Dalk Drive, GISBORNE VIC 3437",GISBORNE,3437,House,5,3,2,0.0,Contact Agent,,-37.509163,144.61298,https://www.domain.com.au/1545-dalk-drive-gisborne-vic-3437-2019627016,2026-03-09
2019712866,"250 Hamilton Road, NEW GISBORNE VIC 3438",NEW GISBORNE,3438,Rural,5,3,4,5.34,Contact Agent,,-37.45846,144.60849,https://www.domain.com.au/250-hamilton-road-new-gisborne-vic-3438-2019712866,2026-03-09
2019823381,"12 Wilson Place, GISBORNE VIC 3437",GISBORNE,3437,House,5,2,5,2171.0,"$1,675,000 - $1,725,000",1700000.0,-37.496902,144.60767,https://www.domain.com.au/12-wilson-place-gisborne-vic-3437-2019823381,2026-03-09
2020014950,"1545 Dalk Drive, GISBORNE VIC 3437",GISBORNE,3437,House,5,3,2,0.0,"$1,481,743.00",740871.5,-37.509163,144.61298,https://www.domain.com.au/1545-dalk-drive-gisborne-vic-3437-2020014950,2026-03-09
2020014967,"1545 Dalk Drive, GISBORNE VIC 3437",GISBORNE,3437,House,4,3,2,0.0,"$1,361,067.00",680533.5,-37.509163,144.61298,https://www.domain.com.au/1545-dalk-drive-gisborne-vic-3437-2020014967,2026-03-09
2020171621,"27 Gordon Boulevard, GISBORNE VIC 3437",GISBORNE,3437,House,4,2,2,738.0,"$1,025,000 to $1,095,000",1060000.0,-37.507618,144.60097,https://www.domain.com.au/27-gordon-boulevard-gisborne-vic-3437-2020171621,2026-03-09
2020173751,"29 Melbourne Road, GISBORNE VIC 3437",GISBORNE,3437,Vacant land,1,1,0,38.3,"$2,000,000 - $2,100,000",2050000.0,-37.49303,144.60146,https://www.domain.com.au/29-melbourne-road-gisborne-vic-3437-2020173751,2026-03-09
2020182054,"8 McCluskey Street, RIDDELLS CREEK VIC 3431",RIDDELLS CREEK,3431,Vacant land,0,0,0,2000.0,"$550,000- $590,000",570000.0,-37.462196,144.66875,https://www.domain.com.au/8-mccluskey-street-riddells-creek-vic-3431-2020182054,2026-03-09
2020182061,"10 McCluskey Street, RIDDELLS CREEK VIC 3431",RIDDELLS CREEK,3431,Vacant land,0,0,0,2010.0,"$520,000- $560,000",540000.0,-37.462196,144.6691,https://www.domain.com.au/10-mccluskey-street-riddells-creek-vic-3431-2020182061,2026-03-09
2020283438,"32 Buckland Boulevard, GISBORNE VIC 3437",GISBORNE,3437,Vacant land,0,0,0,674.0,"$575,000 - $595,000",585000.0,-37.50606,144.60588,https://www.domain.com.au/32-buckland-boulevard-gisborne-vic-3437-2020283438,2026-03-09
2020612610,"19 Gyro Court, GISBORNE VIC 3437",GISBORNE,3437,House,5,4,2,4.19,"$3,300,000 - $3,600,000",3450000.0,-37.521526,144.61443,https://www.domain.com.au/19-gyro-court-gisborne-vic-3437-2020612610,2026-03-09
2020620891,"18 Noah Street, GISBORNE VIC 3437",GISBORNE,3437,House,5,4,2,654.0,"$1,195,000 -$1,295,000",1245000.0,-37.51024,144.61356,https://www.domain.com.au/18-noah-street-gisborne-vic-3437-2020620891,2026-03-09
2020629882,"25 Dalray Crescent, NEW GISBORNE VIC 3438",NEW GISBORNE,3438,House,4,2,2,984.0,"$895,000 - $950,000",922500.0,-37.465576,144.60194,https://www.domain.com.au/25-dalray-crescent-new-gisborne-vic-3438-2020629882,2026-03-09
2020659198,"20 Outlook Way, GISBORNE VIC 3437",GISBORNE,3437,Vacant land,0,0,0,4.07,"$1,100,000 - $1,200,000",1150000.0,-37.50119,144.62303,https://www.domain.com.au/20-outlook-way-gisborne-vic-3437-2020659198,2026-03-09
2019895418,"2 Campbell Road, GISBORNE VIC 3437",GISBORNE,3437,Vacant land,0,0,0,890308.0,Contact Agent,,-37.476543,144.63719,https://www.domain.com.au/2-campbell-road-gisborne-vic-3437-2019895418,2026-03-09
2020047928,"300 Dalrymple Road, SUNBURY VIC 3429",SUNBURY,3429,Vacant land,0,0,0,1007667.0,Contact Agent,,-37.52022,144.64612,https://www.domain.com.au/300-dalrymple-road-sunbury-vic-3429-2020047928,2026-03-09
2020110287,"194 McGeorge Road, GISBORNE VIC 3437",GISBORNE,3437,Vacant land,0,0,0,40468.0,Contact Agent,,-37.52407,144.608,https://www.domain.com.au/194-mcgeorge-road-gisborne-vic-3437-2020110287,2026-03-09
2020113784,"96 Barringo Road, NEW GISBORNE VIC 3438",NEW GISBORNE,3438,Acreage / Semi-Rural,4,2,2,24.28,Contact Agent,,-37.450996,144.60283,https://www.domain.com.au/96-barringo-road-new-gisborne-vic-3438-2020113784,2026-03-09
2020188461,"16 Southbourne Road, RIDDELLS CREEK VIC 3431",RIDDELLS CREEK,3431,Vacant land,0,0,0,2083.0,"$910,000 - 1,000,000",955000.0,-37.459522,144.69066,https://www.domain.com.au/16-southbourne-road-riddells-creek-vic-3431-2020188461,2026-03-09
2020200128,"112 Murray ROAD, GISBORNE VIC 3437",GISBORNE,3437,Vacant land,0,0,0,366645.0,CONTACT AGENT,,-37.49323,144.6514,https://www.domain.com.au/112-murray-road-gisborne-vic-3437-2020200128,2026-03-09
2020204197,"324 McGeorge Road, GISBORNE VIC 3437",GISBORNE,3437,Vacant land,0,0,0,1633.0,"$690,000 - $740,000",715000.0,-37.511,144.60957,https://www.domain.com.au/324-mcgeorge-road-gisborne-vic-3437-2020204197,2026-03-09
2020205719,"140 Palmer Road, SUNBURY VIC 3429",SUNBURY,3429,Acreage / Semi-Rural,5,3,18,18.62,"$2,350,000-$2,550,000",2450000.0,-37.49485,144.70352,https://www.domain.com.au/140-palmer-road-sunbury-vic-3429-2020205719,2026-03-09
2020274201,"46 Riverside Drive, RIDDELLS CREEK VIC 3431",RIDDELLS CREEK,3431,Acreage / Semi-Rural,5,3,6,8.09,"$1,980,000 – $2,100,000",2040000.0,-37.445133,144.63565,https://www.domain.com.au/46-riverside-drive-riddells-creek-vic-3431-2020274201,2026-03-09
2020274568,"1-29/51 Coop Drive, GISBORNE VIC 3437",GISBORNE,3437,Vacant land,0,0,0,967.0,Contact Agent,,-37.50343,144.60037,https://www.domain.com.au/1-29-51-coop-drive-gisborne-vic-3437-2020274568,2026-03-09
2020281300,"69 Bolithos Road, RIDDELLS CREEK VIC 3431",RIDDELLS CREEK,3431,Vacant land,4,2,2,1.03,"Price Range $880,000 -$940,000",910000.0,-37.459377,144.67526,https://www.domain.com.au/69-bolithos-road-riddells-creek-vic-3431-2020281300,2026-03-09
2020282765,"115 Sullivans Road, SUNBURY VIC 3429",SUNBURY,3429,House,3,2,6,16.19,"$1,580,000 - $1,650,000",1615000.0,-37.491886,144.72195,https://www.domain.com.au/115-sullivans-road-sunbury-vic-3429-2020282765,2026-03-09
2020332289,"670 Gap Road, RIDDELLS CREEK VIC 3431",RIDDELLS CREEK,3431,Acreage / Semi-Rural,4,2,6,11.0,"$1,490,000 - $1,590,000",1540000.0,-37.417595,144.6439,https://www.domain.com.au/670-gap-road-riddells-creek-vic-3431-2020332289,2026-03-09
2020357148,"388 McGeorge Road, GISBORNE VIC 3437",GISBORNE,3437,House,4,2,4,799.0,"$1,050,000-$1,100,000",1075000.0,-37.50341,144.60962,https://www.domain.com.au/388-mcgeorge-road-gisborne-vic-3437-2020357148,2026-03-09
2020437943,"41 Stokes Lane W, RIDDELLS CREEK VIC 3431",RIDDELLS CREEK,3431,House,5,4,10,16.23,"2,700,000 - $2,950,000",2825000.0,-37.467583,144.6961,https://www.domain.com.au/41-stokes-lane-w-riddells-creek-vic-3431-2020437943,2026-03-09
2020460124,"241 Sheedy Road, GISBORNE VIC 3437",GISBORNE,3437,House,5,2,4,2563.0,"$2,100,000 - $2,310,000",2205000.0,-37.49876,144.60764,https://www.domain.com.au/241-sheedy-road-gisborne-vic-3437-2020460124,2026-03-09
2020487071,"Lot 1 Mount Charlie Road, RIDDELLS CREEK VIC 3431",RIDDELLS CREEK,3431,Vacant land,0,0,0,133546.0,"$380,000 - $400,000",390000.0,-37.44105,144.70346,https://www.domain.com.au/lot-1-mount-charlie-road-riddells-creek-vic-3431-2020487071,2026-03-09
2020537528,"244 Gap Road, RIDDELLS CREEK VIC 3431",RIDDELLS CREEK,3431,House,4,3,2,8038.0,"$1,700,000 - $1,850,000",1775000.0,-37.441395,144.66518,https://www.domain.com.au/244-gap-road-riddells-creek-vic-3431-2020537528,2026-03-09
2020562096,"85 Palmer Road, SUNBURY VIC 3429",SUNBURY,3429,House,6,4,10,68796.0,"$1,495,000 - $1,640,000",1567500.0,-37.497112,144.69594,https://www.domain.com.au/85-palmer-road-sunbury-vic-3429-2020562096,2026-03-09
2020611438,"17 Cotton Circuit, GISBORNE VIC 3437",GISBORNE,3437,House,5,3,4,0.0,"$2,150,000 - $2,350,000",2250000.0,-37.5031,144.61151,https://www.domain.com.au/17-cotton-circuit-gisborne-vic-3437-2020611438,2026-03-09
2019233165,"Lot 1027/51 Dalk Drive, GISBORNE VIC 3437",GISBORNE,3437,Vacant land,0,0,0,882.0,"$509,000 - $549,000",529000.0,-37.509552,144.61467,https://www.domain.com.au/lot-1027-51-dalk-drive-gisborne-vic-3437-2019233165,2026-03-09
2019611631,"103 Brooking Road, GISBORNE VIC 3437",GISBORNE,3437,Vacant land,0,0,0,1516.0,"ESR $700,000 - $730,000",715000.0,-37.510643,144.60493,https://www.domain.com.au/103-brooking-road-gisborne-vic-3437-2019611631,2026-03-09
2017059677,", SUNBURY VIC 3429",SUNBURY,3429,Acreage / Semi-Rural,1,1,1,6.08,Contact Agent,,-37.531235,144.75897,https://www.domain.com.au/sunbury-vic-3429-2017059677,2026-03-09
2018512237,"428 Bolinda Darraweit road, BOLINDA VIC 3432",BOLINDA,3432,Acreage / Semi-Rural,5,4,4,42.49,Please Contact Agent,,-37.435986,144.79518,https://www.domain.com.au/428-bolinda-darraweit-road-bolinda-vic-3432-2018512237,2026-03-09
2018649405,", BOLINDA VIC 3432",BOLINDA,3432,Vacant land,0,0,0,453247.0,Call before it's SOLD !!,,-37.439438,144.77417,https://www.domain.com.au/bolinda-vic-3432-2018649405,2026-03-09
2019227273,"381 Bolinda-Darraweit Rd, BOLINDA VIC 3432",BOLINDA,3432,House,4,2,5,534185.0,Contact Agent,,-37.434772,144.78998,https://www.domain.com.au/381-bolinda-darraweit-rd-bolinda-vic-3432-2019227273,2026-03-09
2019350972,"140 Outlook Crescent, CLARKEFIELD VIC 3430",CLARKEFIELD,3430,Acreage / Semi-Rural,10,5,0,61.11,CONTACT AGENT,,-37.5032,144.83846,https://www.domain.com.au/140-outlook-crescent-clarkefield-vic-3430-2019350972,2026-03-09
2019524369,"Lot 2 Kennedys Lane, CHINTIN VIC 3756",CHINTIN,3756,Vacant land,0,0,0,416500.0,"$1,090,000",1090000.0,-37.413807,144.81836,https://www.domain.com.au/lot-2-kennedys-lane-chintin-vic-3756-2019524369,2026-03-09
2019577978,", CLARKEFIELD VIC 3430",CLARKEFIELD,3430,Vacant land,0,0,0,80.94,Contact Agent,,-37.491085,144.79324,https://www.domain.com.au/clarkefield-vic-3430-2019577978,2026-03-09
2019748445,"Lot 15 Cherrington Drive, CLARKEFIELD VIC 3430",CLARKEFIELD,3430,Acreage / Semi-Rural,0,0,0,19.02,"$1,250,000 - SETTLEMENT 6 MONTHS",625003.0,-37.48187,144.80319,https://www.domain.com.au/lot-15-cherrington-drive-clarkefield-vic-3430-2019748445,2026-03-09
2019885013,", CLARKEFIELD VIC 3430",CLARKEFIELD,3430,Farm,0,0,0,99.0,Price on Application,,-37.5069,144.79683,https://www.domain.com.au/clarkefield-vic-3430-2019885013,2026-03-09
2019888397,"9/549 Heaths Lane, BOLINDA VIC 3432",BOLINDA,3432,Specialist Farm,0,0,0,40.47,Price on Application,,-37.458755,144.80392,https://www.domain.com.au/9-549-heaths-lane-bolinda-vic-3432-2019888397,2026-03-09
2019959638,"495 Lancefield Road, SUNBURY VIC 3429",SUNBURY,3429,Vacant land,0,0,0,7.29,"$2,250,000",2250000.0,-37.511448,144.76007,https://www.domain.com.au/495-lancefield-road-sunbury-vic-3429-2019959638,2026-03-09
2020036972,"463 Bolinda-Darraweit Road, BOLINDA VIC 3432",BOLINDA,3432,Acreage / Semi-Rural,1,1,0,40.06,"$2,500,000 - $2,700,000",2600000.0,-37.43586,144.79893,https://www.domain.com.au/463-bolinda-darraweit-road-bolinda-vic-3432-2020036972,2026-03-09
2020039129,"4A/549 Heaths Lane, BOLINDA VIC 3432",BOLINDA,3432,Acreage / Semi-Rural,1,1,0,44.52,Price on Application,,-37.458755,144.80392,https://www.domain.com.au/4a-549-heaths-lane-bolinda-vic-3432-2020039129,2026-03-09
2020131585,"472 Boggy Gate Road, CLARKEFIELD VIC 3430",CLARKEFIELD,3430,Acreage / Semi-Rural,3,1,2,40.71,CONTACT AGENT,,-37.465305,144.80273,https://www.domain.com.au/472-boggy-gate-road-clarkefield-vic-3430-2020131585,2026-03-09
2020422213,"1086 Settlement Rd, CLARKEFIELD VIC 3430",CLARKEFIELD,3430,Acreage / Semi-Rural,4,2,2,8.05,CONTACT AGENT,,-37.492653,144.75482,https://www.domain.com.au/1086-settlement-rd-clarkefield-vic-3430-2020422213,2026-03-09
2020423967,"435 Konagaderra Road, WILDWOOD VIC 3429",WILDWOOD,3429,Acreage / Semi-Rural,3,2,6,44.92,Price Reduction!,,-37.526783,144.8267,https://www.domain.com.au/435-konagaderra-road-wildwood-vic-3429-2020423967,2026-03-09
2020610877,"600 Settlement Road, SUNBURY VIC 3429",SUNBURY,3429,House,3,2,8,14.16,"$1,990,000 - $2,180,000",2085000.0,-37.50046,144.74446,https://www.domain.com.au/600-settlement-road-sunbury-vic-3429-2020610877,2026-03-09
2020631124,"1206 Melbourne Lancefield Road, CLARKEFIELD VIC 3430",CLARKEFIELD,3430,Mixed Farming,3,1,0,0.0,POA,,-37.489613,144.76012,https://www.domain.com.au/1206-melbourne-lancefield-road-clarkefield-vic-3430-2020631124,2026-03-09
4327,", KALKALLO VIC 3064",KALKALLO,3064,N/A,0,0,0,0.0,N/A,,-37.529438,144.95955,https://www.domain.com.au/project/4327/stockland-cloverton-kalkallo-vic/,2026-03-09
5378,"Lot 917 Catenary Street, BEVERIDGE VIC 3753",BEVERIDGE,3753,N/A,0,0,0,0.0,N/A,,-37.47374,144.97458,https://www.domain.com.au/project/5378/stockland-lyra-beveridge-vic/,2026-03-09
6398,"Bellarine/49 Lithgow Street, BEVERIDGE VIC 3753",BEVERIDGE,3753,N/A,0,0,0,0.0,N/A,,-37.473175,144.97081,https://www.domain.com.au/project/6398/springside-beveridge-vic/,2026-03-09
2018003536,"29-31 Kelly Street, BEVERIDGE VIC 3753",BEVERIDGE,3753,Acreage / Semi-Rural,4,2,10,0.0,Contact Sandeep on 0425 289 844,,-37.47785,144.98096,https://www.domain.com.au/29-31-kelly-street-beveridge-vic-3753-2018003536,2026-03-09
2019690951,"Beechworth/49 Lithgow Street, BEVERIDGE VIC 3753",BEVERIDGE,3753,Unknown,3,2,1,0.0,"$556,000",556000.0,-37.473175,144.97081,https://www.domain.com.au/beechworth-49-lithgow-street-beveridge-vic-3753-2019690951,2026-03-09
2019690952,"Bellarine/49 Lithgow Street, BEVERIDGE VIC 3753",BEVERIDGE,3753,Unknown,3,2,2,0.0,"$677,000",677000.0,-37.473175,144.97081,https://www.domain.com.au/bellarine-49-lithgow-street-beveridge-vic-3753-2019690952,2026-03-09
2019690954,"Milawa/49 Lithgow Street, BEVERIDGE VIC 3753",BEVERIDGE,3753,Unknown,3,2,2,0.0,"$699,000",699000.0,-37.473175,144.97081,https://www.domain.com.au/milawa-49-lithgow-street-beveridge-vic-3753-2019690954,2026-03-09
2019690956,"Heathcote/49 Lithgow Street, BEVERIDGE VIC 3753",BEVERIDGE,3753,Unknown,3,2,2,0.0,"$662,000",662000.0,-37.473175,144.97081,https://www.domain.com.au/heathcote-49-lithgow-street-beveridge-vic-3753-2019690956,2026-03-09
2019777960,"179 Fairfield Lane, DARRAWEIT GUIM VIC 3756",DARRAWEIT GUIM,3756,Rural,9,4,10,11.13,"$2,050,000 - $2,200,000",2125000.0,-37.405857,144.8853,https://www.domain.com.au/179-fairfield-lane-darraweit-guim-vic-3756-2019777960,2026-03-09
2019799870,"33 Spring Street, BEVERIDGE VIC 3753",BEVERIDGE,3753,House,4,2,6,2031.0,"$1,150,000 to $1,250,000",1200000.0,-37.472744,144.9754,https://www.domain.com.au/33-spring-street-beveridge-vic-3753-2019799870,2026-03-09
2020195900,"84-106 William Street, WALLAN VIC 3756",WALLAN,3756,House,7,5,10,169967.0,THE DEAL: $7M - $7.7M,7.0,-37.408207,144.9948,https://www.domain.com.au/84-106-william-street-wallan-vic-3756-2020195900,2026-03-09
2020263304,", KALKALLO VIC 3064",KALKALLO,3064,Townhouse,4,3,2,0.0,"from $589,900",589900.0,-37.529438,144.95955,https://www.domain.com.au/kalkallo-vic-3064-2020263304,2026-03-09
2020303824,"Lot 34415 20 INKSPELL STREET, KALKALLO VIC 3064",KALKALLO,3064,New House & Land,4,2,2,663.0,"$917,670",917670.0,-37.5266,144.97096,https://www.domain.com.au/lot-34415-20-inkspell-street-kalkallo-vic-3064-2020303824,2026-03-09
2020334077,"Lot 34406 Jump Street, KALKALLO VIC 3064",KALKALLO,3064,New land,0,0,0,512.0,"$493,000",493000.0,-37.529438,144.95955,https://www.domain.com.au/lot-34406-jump-street-kalkallo-vic-3064-2020334077,2026-03-09
2020360373,"Lot 34436 29 BITTERSWEET DRIVE, KALKALLO VIC 3064",KALKALLO,3064,New House & Land,4,2,2,512.0,"$1,121,578",1121578.0,-37.52774,144.97112,https://www.domain.com.au/lot-34436-29-bittersweet-drive-kalkallo-vic-3064-2020360373,2026-03-09
2020493101,"10 Raven Circuit, BEVERIDGE VIC 3753",BEVERIDGE,3753,New House & Land,4,2,2,420.0,"From $722,423",722423.0,-37.469017,144.96504,https://www.domain.com.au/10-raven-circuit-beveridge-vic-3753-2020493101,2026-03-09
2020493126,"11 Raven Circuit, BEVERIDGE VIC 3753",BEVERIDGE,3753,New House & Land,4,2,2,436.0,"From $976,269",976269.0,-37.46888,144.9647,https://www.domain.com.au/11-raven-circuit-beveridge-vic-3753-2020493126,2026-03-09
2020535672,"8 Rathdowne Drive, MICKLEHAM VIC 3064",MICKLEHAM,3064,House,3,2,2,0.0,"$575,000 to $625,000",600000.0,-37.527603,144.89867,https://www.domain.com.au/8-rathdowne-drive-mickleham-vic-3064-2020535672,2026-03-09
2020544291,"360 Simon Hill Road, WALLAN VIC 3756",WALLAN,3756,Rural,3,2,1,31.89,"$1,400,000",1400000.0,-37.406693,144.97983,https://www.domain.com.au/360-simon-hill-road-wallan-vic-3756-2020544291,2026-03-09
2020577185,"42 Riceflower Rise, WALLAN VIC 3756",WALLAN,3756,House,4,2,2,463.0,"$590,000-$620,000",605000.0,-37.417027,144.96118,https://www.domain.com.au/42-riceflower-rise-wallan-vic-3756-2020577185,2026-03-09
2020600154,"Lot 917 Catenary Street, BEVERIDGE VIC 3753",BEVERIDGE,3753,New land,0,0,0,392.0,"$367,000",367000.0,-37.47374,144.97458,https://www.domain.com.au/lot-917-catenary-street-beveridge-vic-3753-2020600154,2026-03-09
2020600167,"Lot 626 467 Lithgow Road, BEVERIDGE VIC 3753",BEVERIDGE,3753,New land,0,0,0,416.0,"$373,000",373000.0,-37.47469,144.98825,https://www.domain.com.au/lot-626-467-lithgow-road-beveridge-vic-3753-2020600167,2026-03-09
2020600173,"Lot 709 3 Noorat Road, BEVERIDGE VIC 3753",BEVERIDGE,3753,New land,0,0,0,448.0,"$392,000",392000.0,-37.474537,144.98914,https://www.domain.com.au/lot-709-3-noorat-road-beveridge-vic-3753-2020600173,2026-03-09
2020607196,"Lot 206 11 Templemore Road, BEVERIDGE VIC 3753",BEVERIDGE,3753,New land,0,0,0,400.0,"$372,000",372000.0,-37.472523,144.98615,https://www.domain.com.au/lot-206-11-templemore-road-beveridge-vic-3753-2020607196,2026-03-09
2020631644,"7 Taketa Way, KALKALLO VIC 3064",KALKALLO,3064,House,4,2,2,0.0,"$650,000-$690,000",670000.0,-37.531902,144.96873,https://www.domain.com.au/7-taketa-way-kalkallo-vic-3064-2020631644,2026-03-09
2020646272,"28 Carlingford Road, MICKLEHAM VIC 3064",MICKLEHAM,3064,House,4,2,4,0.0,Auction,,-37.529938,144.90356,https://www.domain.com.au/28-carlingford-road-mickleham-vic-3064-2020646272,2026-03-09
2020649894,"3 Jodrew Walk, MICKLEHAM VIC 3064",MICKLEHAM,3064,House,4,3,2,0.0,Contact Agent,,-37.526516,144.913,https://www.domain.com.au/3-jodrew-walk-mickleham-vic-3064-2020649894,2026-03-09
2020650621,"40 Rhapsody Road, BEVERIDGE VIC 3753",BEVERIDGE,3753,House,4,2,2,570.0,"$550,000 - $600,000",575000.0,-37.476578,144.94533,https://www.domain.com.au/40-rhapsody-road-beveridge-vic-3753-2020650621,2026-03-09
2020651359,"20 Nightingale Road, MICKLEHAM VIC 3064",MICKLEHAM,3064,House,4,2,2,0.0,"$700,000 - $770,000",735000.0,-37.52876,144.89908,https://www.domain.com.au/20-nightingale-road-mickleham-vic-3064-2020651359,2026-03-09
2020660624,"574 cameron street, DONNYBROOK VIC 3064",DONNYBROOK,3064,House,5,4,4,0.0,Contact Agent,,-37.53088,144.99904,https://www.domain.com.au/574-cameron-street-donnybrook-vic-3064-2020660624,2026-03-09
2020661188,"Lot 2622 Demesne Drive, DONNYBROOK VIC 3064",DONNYBROOK,3064,New Home Designs,4,2,2,0.0,"$573,785",573785.0,-37.52959,144.99908,https://www.domain.com.au/lot-2622-demesne-drive-donnybrook-vic-3064-2020661188,2026-03-09
2020661773,"7 Firewheel Road, KALKALLO VIC 3064",KALKALLO,3064,House,4,2,2,312.0,Auction Saturday 28th March AT 3:30PM,,-37.52039,144.95236,https://www.domain.com.au/7-firewheel-road-kalkallo-vic-3064-2020661773,2026-03-09
2020492962,"14 Raven Circuit, BEVERIDGE VIC 3753",BEVERIDGE,3753,New House & Land,4,2,2,375.0,"From $703,425",703425.0,-37.468773,144.96509,https://www.domain.com.au/14-raven-circuit-beveridge-vic-3753-2020492962,2026-03-09
2020618226,"16 Barnato Street, MICKLEHAM VIC 3064",MICKLEHAM,3064,House,5,2,2,512.0,LIFESTYLE & LUXURY ALL IN ONE!,,-37.530434,144.89577,https://www.domain.com.au/16-barnato-street-mickleham-vic-3064-2020618226,2026-03-09
2020620133,"Lot 417 Raven Circuit, Alkyra, BEVERIDGE VIC 3753",BEVERIDGE,3753,New House & Land,4,2,2,389.0,"$658,990",658990.0,-37.47121,144.96501,https://www.domain.com.au/lot-417-raven-circuit-alkyra-beveridge-vic-3753-2020620133,2026-03-09
2020622481,"8 Dalgety Street, MICKLEHAM VIC 3064",MICKLEHAM,3064,House,3,2,2,0.0,"Auction - $590,000 - $640,000",,-37.51956,144.90901,https://www.domain.com.au/8-dalgety-street-mickleham-vic-3064-2020622481,2026-03-09
2020623884,"164 Antares Parade, KALKALLO VIC 3064",KALKALLO,3064,House,4,2,2,0.0,Auction Saturday 7th March AT 3:30PM,,-37.516766,144.95474,https://www.domain.com.au/164-antares-parade-kalkallo-vic-3064-2020623884,2026-03-09
2020624127,"Lot 60432 Centella Street, BEVERIDGE VIC 3753",BEVERIDGE,3753,New House & Land,3,2,1,300.0,"$626,600",626600.0,-37.47374,144.97458,https://www.domain.com.au/lot-60432-centella-street-beveridge-vic-3753-2020624127,2026-03-09
2020625022,"Lot 37246 Lumin Boulevard, KALKALLO VIC 3064",KALKALLO,3064,New House & Land,4,2,2,512.0,"From $779,000",779000.0,-37.515327,144.96591,https://www.domain.com.au/lot-37246-lumin-boulevard-kalkallo-vic-3064-2020625022,2026-03-09
2020629068,"Lot 60546 Fungi Walk, BEVERIDGE VIC 3753",BEVERIDGE,3753,New House & Land,3,2,2,168.0,"$529,900k if eligible for FHOG, $519,900",524900.0,-37.47374,144.97458,https://www.domain.com.au/lot-60546-fungi-walk-beveridge-vic-3753-2020629068,2026-03-09
2020633324,"Lot 437 Spafield Road, BEVERIDGE VIC 3753",BEVERIDGE,3753,New Home Designs,4,2,2,0.0,"$675,588",675588.0,-37.470806,144.98564,https://www.domain.com.au/lot-437-spafield-road-beveridge-vic-3753-2020633324,2026-03-09
2020633326,"Lot 906 Cantenary Street, BEVERIDGE VIC 3753",BEVERIDGE,3753,New Home Designs,4,3,2,0.0,"$834,453",834453.0,-37.47374,144.97458,https://www.domain.com.au/lot-906-cantenary-street-beveridge-vic-3753-2020633326,2026-03-09
2020633328,"Lot 906 Cantenary Street, BEVERIDGE VIC 3753",BEVERIDGE,3753,New Home Designs,5,2,2,0.0,"$652,048",652048.0,-37.47374,144.97458,https://www.domain.com.au/lot-906-cantenary-street-beveridge-vic-3753-2020633328,2026-03-09
2020633330,"Lot 437 Spafield Road, BEVERIDGE VIC 3753",BEVERIDGE,3753,New Home Designs,3,2,2,0.0,"$632,685",632685.0,-37.470806,144.98564,https://www.domain.com.au/lot-437-spafield-road-beveridge-vic-3753-2020633330,2026-03-09
2020633331,"Lot 437 Spafield Road, BEVERIDGE VIC 3753",BEVERIDGE,3753,New Home Designs,4,3,2,0.0,"$857,588",857588.0,-37.470806,144.98564,https://www.domain.com.au/lot-437-spafield-road-beveridge-vic-3753-2020633331,2026-03-09
2020633333,"Lot 906 Cantenary Street, BEVERIDGE VIC 3753",BEVERIDGE,3753,New Home Designs,4,2,2,0.0,"$599,695",599695.0,-37.47374,144.97458,https://www.domain.com.au/lot-906-cantenary-street-beveridge-vic-3753-2020633333,2026-03-09
2020633334,"Lot 437 Spafield Road, BEVERIDGE VIC 3753",BEVERIDGE,3753,New Home Designs,4,3,2,0.0,"$798,088",798088.0,-37.470806,144.98564,https://www.domain.com.au/lot-437-spafield-road-beveridge-vic-3753-2020633334,2026-03-09
2020634122,"12 Claude Street, KALKALLO VIC 3064",KALKALLO,3064,House,4,2,2,312.0,Auction Saturday 7th March AT 3:00PM,,-37.524014,144.96112,https://www.domain.com.au/12-claude-street-kalkallo-vic-3064-2020634122,2026-03-09
2020635705,"17 Cooney Circuit, KALKALLO VIC 3064",KALKALLO,3064,House,4,2,2,448.0,Contact Agent,,-37.528538,144.96219,https://www.domain.com.au/17-cooney-circuit-kalkallo-vic-3064-2020635705,2026-03-09
2020638248,"1 Stringybark Avenue, WALLAN VIC 3756",WALLAN,3756,House,4,2,2,509.0,"$600,000 - $660,000",630000.0,-37.41821,144.9678,https://www.domain.com.au/1-stringybark-avenue-wallan-vic-3756-2020638248,2026-03-09
2020641459,"Lot 5705 Kooyongkoot Drive, MICKLEHAM VIC 3064",MICKLEHAM,3064,New House & Land,4,2,2,400.0,"$762,300",762300.0,-37.52181,144.90015,https://www.domain.com.au/lot-5705-kooyongkoot-drive-mickleham-vic-3064-2020641459,2026-03-09
2020646681,"8 Raniformis Road, BEVERIDGE VIC 3753",BEVERIDGE,3753,New House & Land,4,2,2,350.0,"From $761,446",761446.0,-37.509045,144.95448,https://www.domain.com.au/8-raniformis-road-beveridge-vic-3753-2020646681,2026-03-09
2020565892,"26 Liberty Crescent, BEVERIDGE VIC 3753",BEVERIDGE,3753,House,4,2,2,441.0,"$680,000",680000.0,-37.479153,144.93965,https://www.domain.com.au/26-liberty-crescent-beveridge-vic-3753-2020565892,2026-03-09
2020570699,"41 Cromarty Crescent, KALKALLO VIC 3064",KALKALLO,3064,House,4,2,2,392.0,$760k - $790k,775.0,-37.52864,144.96696,https://www.domain.com.au/41-cromarty-crescent-kalkallo-vic-3064-2020570699,2026-03-09
2020573109,"63 Roscoe Avenue, KALKALLO VIC 3064",KALKALLO,3064,House,3,2,2,0.0,"$585,000-$605,000",595000.0,-37.52508,144.96149,https://www.domain.com.au/63-roscoe-avenue-kalkallo-vic-3064-2020573109,2026-03-09
2020579040,"3 Primrose Crescent, MICKLEHAM VIC 3064",MICKLEHAM,3064,House,4,2,2,0.0,Contact Agent,,-37.53228,144.90338,https://www.domain.com.au/3-primrose-crescent-mickleham-vic-3064-2020579040,2026-03-09
2020581818,"4 Yucca Road, KALKALLO VIC 3064",KALKALLO,3064,House,4,2,2,350.0,$690k to 710k,700.0,-37.519558,144.95769,https://www.domain.com.au/4-yucca-road-kalkallo-vic-3064-2020581818,2026-03-09
2020588554,"17 Beaconsfield Drive, MICKLEHAM VIC 3064",MICKLEHAM,3064,House,4,2,2,0.0,Contact Agent,,-37.522015,144.91174,https://www.domain.com.au/17-beaconsfield-drive-mickleham-vic-3064-2020588554,2026-03-09
2020589945,"4 Tweed Place, KALKALLO VIC 3064",KALKALLO,3064,House,4,2,2,350.0,"$650,000 - $690,000",670000.0,-37.527493,144.96928,https://www.domain.com.au/4-tweed-place-kalkallo-vic-3064-2020589945,2026-03-09
2020593365,"11 Taketa Way, KALKALLO VIC 3064",KALKALLO,3064,House,5,3,2,507.0,Auction Saturday 7th March 2026 AT 2:00PM,,-37.531956,144.96924,https://www.domain.com.au/11-taketa-way-kalkallo-vic-3064-2020593365,2026-03-09
2020593436,"17 Ficus Circuit, WALLAN VIC 3756",WALLAN,3756,House,4,2,2,392.0,"ESR: $590,000 - $620,000",605000.0,-37.428345,144.99591,https://www.domain.com.au/17-ficus-circuit-wallan-vic-3756-2020593436,2026-03-09
2020594164,"7 Oxygen Street, KALKALLO VIC 3064",KALKALLO,3064,House,4,2,2,373.0,"Price Guide $680,000-$720,000",700000.0,-37.518757,144.95215,https://www.domain.com.au/7-oxygen-street-kalkallo-vic-3064-2020594164,2026-03-09
2020600741,"6 Bunting Crescent, KALKALLO VIC 3064",KALKALLO,3064,House,4,2,4,392.0,"$699,999 to $720,000",709999.5,-37.529457,144.96605,https://www.domain.com.au/6-bunting-crescent-kalkallo-vic-3064-2020600741,2026-03-09
2020603239,"18 Bushranger Cct, BEVERIDGE VIC 3753",BEVERIDGE,3753,House,4,2,2,0.0,Taking offers Now !!,,-37.473293,144.96774,https://www.domain.com.au/18-bushranger-cct-beveridge-vic-3753-2020603239,2026-03-09
2020603516,"22 Stilt Street, KALKALLO VIC 3064",KALKALLO,3064,House,3,2,1,221.0,Auction Saturday 7th March 2026 AT 2:30PM,,-37.515778,144.95746,https://www.domain.com.au/22-stilt-street-kalkallo-vic-3064-2020603516,2026-03-09
2020603936,"Lot 418 Curlew Drive, WALLAN VIC 3756",WALLAN,3756,New Home Designs,4,2,2,0.0,"$647,685",647685.0,-37.406693,144.97983,https://www.domain.com.au/lot-418-curlew-drive-wallan-vic-3756-2020603936,2026-03-09
2020603937,"Lot 417 Curlew Drive, WALLAN VIC 3756",WALLAN,3756,New Home Designs,4,2,2,0.0,"$615,295",615295.0,-37.406693,144.97983,https://www.domain.com.au/lot-417-curlew-drive-wallan-vic-3756-2020603937,2026-03-09
2020610189,"Lot 1031 Rigdy Drive, Lyra, BEVERIDGE VIC 3753",BEVERIDGE,3753,New House & Land,3,2,1,213.0,"$495,090",495090.0,-37.474854,144.98575,https://www.domain.com.au/lot-1031-rigdy-drive-lyra-beveridge-vic-3753-2020610189,2026-03-09
2020612310,"Lot 5703 Piebald Street, BEVERIDGE VIC 3753",BEVERIDGE,3753,New House & Land,4,2,2,350.0,"$593,700",593700.0,-37.47374,144.97458,https://www.domain.com.au/lot-5703-piebald-street-beveridge-vic-3753-2020612310,2026-03-09
2020612424,"28 Lumin Boulevard, KALKALLO VIC 3064",KALKALLO,3064,House,4,2,2,350.0,$690k-$740k,715.0,-37.51477,144.95775,https://www.domain.com.au/28-lumin-boulevard-kalkallo-vic-3064-2020612424,2026-03-09
2020615995,"4 Roscoe Avenue, KALKALLO VIC 3064",KALKALLO,3064,House,4,2,2,665.0,"MUST BE SOLD ESR: $745,000 - $795,000",770000.0,-37.52657,144.95985,https://www.domain.com.au/4-roscoe-avenue-kalkallo-vic-3064-2020615995,2026-03-09
2020616407,"44 Balmain Road, MICKLEHAM VIC 3064",MICKLEHAM,3064,House,5,2,2,662.0,Grand Family Entertainer.,,-37.532066,144.90344,https://www.domain.com.au/44-balmain-road-mickleham-vic-3064-2020616407,2026-03-09
2018715107,"68 Maystone Drive, MICKLEHAM VIC 3064",MICKLEHAM,3064,House,4,3,2,0.0,Price on Application,,-37.52379,144.90643,https://www.domain.com.au/68-maystone-drive-mickleham-vic-3064-2018715107,2026-03-09
2018742116,"17 Maryland Road, KALKALLO VIC 3064",KALKALLO,3064,House,3,2,2,0.0,Price on Application,,-37.518936,144.96004,https://www.domain.com.au/17-maryland-road-kalkallo-vic-3064-2018742116,2026-03-09
2019759349,", MICKLEHAM VIC 3064",MICKLEHAM,3064,House,4,2,2,0.0,Brand new Under construction,,-37.528572,144.9039,https://www.domain.com.au/mickleham-vic-3064-2019759349,2026-03-09
2020194052,"7 Suffern Street, DONNYBROOK VIC 3064",DONNYBROOK,3064,House,4,3,2,0.0,$640k to $660k,650.0,-37.529366,144.99841,https://www.domain.com.au/7-suffern-street-donnybrook-vic-3064-2020194052,2026-03-09
2020292974,"6 Sodium Street, KALKALLO VIC 3064",KALKALLO,3064,House,3,2,1,0.0,Price on Application,,-37.519012,144.95287,https://www.domain.com.au/6-sodium-street-kalkallo-vic-3064-2020292974,2026-03-09
2020332818,", MICKLEHAM VIC 3064",MICKLEHAM,3064,House,4,3,2,412.0,Brand New Under Construction,,-37.51998,144.90678,https://www.domain.com.au/mickleham-vic-3064-2020332818,2026-03-09
2020334367,"98 Arcturus Drive, KALKALLO VIC 3064",KALKALLO,3064,House,4,2,2,0.0,$740k-$790k,765.0,-37.518818,144.95076,https://www.domain.com.au/98-arcturus-drive-kalkallo-vic-3064-2020334367,2026-03-09
2020348594,"25 Tungsten Drive, KALKALLO VIC 3064",KALKALLO,3064,House,4,2,2,350.0,Contact Agent,,-37.515335,144.95375,https://www.domain.com.au/25-tungsten-drive-kalkallo-vic-3064-2020348594,2026-03-09
2020348603,"9 Alisterus Road, KALKALLO VIC 3064",KALKALLO,3064,House,4,2,2,0.0,Contact Agent,,-37.516125,144.9529,https://www.domain.com.au/9-alisterus-road-kalkallo-vic-3064-2020348603,2026-03-09
2020348663,"171 Arcturus Drive, KALKALLO VIC 3064",KALKALLO,3064,House,4,2,2,0.0,Contact Agent,,-37.514656,144.95348,https://www.domain.com.au/171-arcturus-drive-kalkallo-vic-3064-2020348663,2026-03-09
2020411737,"68 Palm Circuit, BEVERIDGE VIC 3753",BEVERIDGE,3753,House,4,2,2,392.0,"$590,000 - $649,000",619500.0,-37.471996,144.96996,https://www.domain.com.au/68-palm-circuit-beveridge-vic-3753-2020411737,2026-03-09
2020436066,"4 Grace Court, BEVERIDGE VIC 3753",BEVERIDGE,3753,House,4,2,3,544.0,"4 Living Areas, Alfresco & Much More.",4.0,-37.47981,144.94077,https://www.domain.com.au/4-grace-court-beveridge-vic-3753-2020436066,2026-03-09
2020485267,"22 Mallaig Drive, BEVERIDGE VIC 3753",BEVERIDGE,3753,House,4,2,2,313.0,"$590,000 - $640,000",615000.0,-37.474613,144.96852,https://www.domain.com.au/22-mallaig-drive-beveridge-vic-3753-2020485267,2026-03-09
2020530733,"14 Middle Way, MICKLEHAM VIC 3064",MICKLEHAM,3064,House,4,3,2,0.0,$895k - $950k,922.5,-37.529453,144.90508,https://www.domain.com.au/14-middle-way-mickleham-vic-3064-2020530733,2026-03-09
2020536512,"4 Ayre Street, BEVERIDGE VIC 3753",BEVERIDGE,3753,House,4,2,2,0.0,"$650k-$680k, Taking Offers Now",665.0,-37.48116,144.9664,https://www.domain.com.au/4-ayre-street-beveridge-vic-3753-2020536512,2026-03-09
2020541850,"10 Hederwick Street, MICKLEHAM VIC 3064",MICKLEHAM,3064,House,4,2,1,0.0,$560k -$610k,585.0,-37.522625,144.90306,https://www.domain.com.au/10-hederwick-street-mickleham-vic-3064-2020541850,2026-03-09
2020562997,"6 Oleander Circuit, BEVERIDGE VIC 3753",BEVERIDGE,3753,House,4,2,1,0.0,Contact Agent,,-37.46843,144.96141,https://www.domain.com.au/6-oleander-circuit-beveridge-vic-3753-2020562997,2026-03-09
2020599114,"254 Dwyer Street, KALKALLO VIC 3064",KALKALLO,3064,House,3,2,1,204.0,"Asking $589,950",589950.0,-37.51993,144.95923,https://www.domain.com.au/254-dwyer-street-kalkallo-vic-3064-2020599114,2026-03-09
2020658031,"49 Roseburn Avenue, MICKLEHAM VIC 3064",MICKLEHAM,3064,House,4,3,2,875.0,"$1,025,000 - $1,125,000",1075000.0,-37.52444,144.90448,https://www.domain.com.au/49-roseburn-avenue-mickleham-vic-3064-2020658031,2026-03-09
2020662231,"18 Margaretta Circuit, MICKLEHAM VIC 3064",MICKLEHAM,3064,House,3,2,2,0.0,AFFORDABLE | SPACIOUS | TOP LOCATION,,-37.519188,144.9075,https://www.domain.com.au/18-margaretta-circuit-mickleham-vic-3064-2020662231,2026-03-09
2019058491,"15 Stewart Street, BEVERIDGE VIC 3753",BEVERIDGE,3753,House,4,3,2,4200.0,Contact SANDEEP on 0425289844,,-37.47817,144.98386,https://www.domain.com.au/15-stewart-street-beveridge-vic-3753-2019058491,2026-03-09
2019694936,"27 Beacon Close, BEVERIDGE VIC 3753",BEVERIDGE,3753,Vacant land,0,0,0,601.0,"$460,000 to $480,000",470000.0,-37.471725,144.95041,https://www.domain.com.au/27-beacon-close-beveridge-vic-3753-2019694936,2026-03-09
2020016994,"51 Glendonald Road, DARRAWEIT GUIM VIC 3756",DARRAWEIT GUIM,3756,House,4,3,6,2.02,"$1,850,000 - $1,920,000",1885000.0,-37.40462,144.89021,https://www.domain.com.au/51-glendonald-road-darraweit-guim-vic-3756-2020016994,2026-03-09
2020487840,"268 Doolins Road, DARRAWEIT GUIM VIC 3756",DARRAWEIT GUIM,3756,Acreage / Semi-Rural,4,2,12,40.47,Contact Agent!,,-37.45008,144.86917,https://www.domain.com.au/268-doolins-road-darraweit-guim-vic-3756-2020487840,2026-03-09
2020520156,"11 Kilbarron Road, BEVERIDGE VIC 3753",BEVERIDGE,3753,House,4,3,2,294.0,"$595,000-$635,000",615000.0,-37.47374,144.97458,https://www.domain.com.au/11-kilbarron-road-beveridge-vic-3753-2020520156,2026-03-09
2020532847,"8 King Street, WALLAN VIC 3756",WALLAN,3756,House,3,2,3,1.44,"$2,460,000 - $2,580,000",2520000.0,-37.408092,144.97115,https://www.domain.com.au/8-king-street-wallan-vic-3756-2020532847,2026-03-09
2020536154,"22 Fenska Street, KALKALLO VIC 3064",KALKALLO,3064,House,3,2,2,263.0,"Asking $649,500",649500.0,-37.5206,144.9525,https://www.domain.com.au/22-fenska-street-kalkallo-vic-3064-2020536154,2026-03-09
2020574859,"8 Ram Circuit, WALLAN VIC 3756",WALLAN,3756,House,4,2,2,353.0,"$620,000 - $680,000",650000.0,-37.432175,144.99261,https://www.domain.com.au/8-ram-circuit-wallan-vic-3756-2020574859,2026-03-09
2020583613,"14 Cephei Street, KALKALLO VIC 3064",KALKALLO,3064,House,3,2,2,263.0,"$545,000 - $595,000",570000.0,-37.519543,144.95667,https://www.domain.com.au/14-cephei-street-kalkallo-vic-3064-2020583613,2026-03-09
2020597581,"252 Dwyer Street, KALKALLO VIC 3064",KALKALLO,3064,House,3,2,1,192.0,"Asking $569,950",569950.0,-37.520035,144.95917,https://www.domain.com.au/252-dwyer-street-kalkallo-vic-3064-2020597581,2026-03-09
2020658658,"521 Timbarra, BEVERIDGE VIC 3753",BEVERIDGE,3753,House,4,2,2,406.0,"$734,300",734300.0,-37.470947,144.96579,https://www.domain.com.au/521-timbarra-beveridge-vic-3753-2020658658,2026-03-09
2020661065,"LOT 405 ALKYRA ESTATE, BEVERIDGE VIC 3753",BEVERIDGE,3753,New House & Land,4,2,2,350.0,"$585,316",585316.0,-37.47121,144.96501,https://www.domain.com.au/lot-405-alkyra-estate-beveridge-vic-3753-2020661065,2026-03-09
2020661179,"LOT 2205 WALLARA WATERS, WALLAN VIC 3756",WALLAN,3756,New House & Land,4,2,2,400.0,"$635,350",635350.0,-37.424873,144.99448,https://www.domain.com.au/lot-2205-wallara-waters-wallan-vic-3756-2020661179,2026-03-09
2020661190,"LOT 2206 WALLARA WATERS, WALLAN VIC 3756",WALLAN,3756,New House & Land,4,2,2,400.0,"$654,893",654893.0,-37.424873,144.99448,https://www.domain.com.au/lot-2206-wallara-waters-wallan-vic-3756-2020661190,2026-03-09
2020661750,"26 Acacia Way, WALLAN VIC 3756",WALLAN,3756,Vacant land,0,0,0,849.0,Contact Agent,,-37.402325,144.96219,https://www.domain.com.au/26-acacia-way-wallan-vic-3756-2020661750,2026-03-09
2020662130,", BEVERIDGE VIC 3753",BEVERIDGE,3753,New House & Land,4,2,1,301.0,CONTACT AGENT,,-37.47374,144.97458,https://www.domain.com.au/beveridge-vic-3753-2020662130,2026-03-09
2020662205,", KALKALLO VIC 3064",KALKALLO,3064,New House & Land,4,2,2,294.0,CONTACT AGENT,,-37.529438,144.95955,https://www.domain.com.au/kalkallo-vic-3064-2020662205,2026-03-09
2020663058,", KALKALLO VIC 3064",KALKALLO,3064,House,3,2,2,221.0,"$620,950",620950.0,-37.529438,144.95955,https://www.domain.com.au/kalkallo-vic-3064-2020663058,2026-03-09
2020663084,", WALLAN VIC 3756",WALLAN,3756,House,4,0,0,400.0,"$675,050",675050.0,-37.406693,144.97983,https://www.domain.com.au/wallan-vic-3756-2020663084,2026-03-09
2020663524,"5714 Kooyongkoot Drive, MICKLEHAM VIC 3064",MICKLEHAM,3064,New House & Land,4,2,2,263.0,"$609,328",609328.0,-37.52181,144.90015,https://www.domain.com.au/5714-kooyongkoot-drive-mickleham-vic-3064-2020663524,2026-03-09
2020652224,"Invermay Circuit, MICKLEHAM VIC 3064",MICKLEHAM,3064,Vacant land,0,0,0,392.0,"$452,000.00",226000.0,-37.51899,144.90414,https://www.domain.com.au/invermay-circuit-mickleham-vic-3064-2020652224,2026-03-09
2020652234,"Invermay Circuit, MICKLEHAM VIC 3064",MICKLEHAM,3064,Vacant land,0,0,0,392.0,"$452,000.00",226000.0,-37.51899,144.90414,https://www.domain.com.au/invermay-circuit-mickleham-vic-3064-2020652234,2026-03-09
2020652330,"Kooyongkoot Drive, MICKLEHAM VIC 3064",MICKLEHAM,3064,Vacant land,0,0,0,528.0,"$505,000.00",252500.0,-37.52181,144.90015,https://www.domain.com.au/kooyongkoot-drive-mickleham-vic-3064-2020652330,2026-03-09
2020652341,"Kooyongkoot Drive, MICKLEHAM VIC 3064",MICKLEHAM,3064,Vacant land,0,0,0,406.0,"$438,000.00",219000.0,-37.52181,144.90015,https://www.domain.com.au/kooyongkoot-drive-mickleham-vic-3064-2020652341,2026-03-09
2020652742,"Lot 1002 Tangara Road (Lyra Estate), BEVERIDGE VIC 3753",BEVERIDGE,3753,New House & Land,4,2,2,312.0,"$600,280",600280.0,-37.474854,144.98575,https://www.domain.com.au/lot-1002-tangara-road-lyra-estate-beveridge-vic-3753-2020652742,2026-03-09
2020652754,"Lot 1033 Rigdy Drive, BEVERIDGE VIC 3753",BEVERIDGE,3753,New House & Land,3,2,2,263.0,"$570,550",570550.0,-37.47374,144.97458,https://www.domain.com.au/lot-1033-rigdy-drive-beveridge-vic-3753-2020652754,2026-03-09
2020652840,"Lot 946 Hummrock Circuit, BEVERIDGE VIC 3753",BEVERIDGE,3753,New House & Land,4,2,2,350.0,"$598,877",598877.0,-37.47374,144.97458,https://www.domain.com.au/lot-946-hummrock-circuit-beveridge-vic-3753-2020652840,2026-03-09
2020653312,"lOT 5703 PIEBALD STREET, BEVERIDGE VIC 3753",BEVERIDGE,3753,New House & Land,4,2,2,350.0,"$612,920",612920.0,-37.47374,144.97458,https://www.domain.com.au/lot-5703-piebald-street-beveridge-vic-3753-2020653312,2026-03-09
2020653395,"Lot 5332 Atherton Street, BEVERIDGE VIC 3753",BEVERIDGE,3753,New House & Land,4,2,2,389.0,"$676,250",676250.0,-37.469967,144.94424,https://www.domain.com.au/lot-5332-atherton-street-beveridge-vic-3753-2020653395,2026-03-09
2020654080,"33202 Arcturus Drive, KALKALLO VIC 3064",KALKALLO,3064,New House & Land,4,2,2,350.0,"$636,710",636710.0,-37.520874,144.95016,https://www.domain.com.au/33202-arcturus-drive-kalkallo-vic-3064-2020654080,2026-03-09
2020654267,"6074 Marasmius Street, KALKALLO VIC 3064",KALKALLO,3064,New House & Land,3,2,2,313.0,"$619,730",619730.0,-37.529438,144.95955,https://www.domain.com.au/6074-marasmius-street-kalkallo-vic-3064-2020654267,2026-03-09
2020654376,", BEVERIDGE VIC 3753",BEVERIDGE,3753,New House & Land,4,2,1,221.0,CONTACT AGENT,,-37.47374,144.97458,https://www.domain.com.au/beveridge-vic-3753-2020654376,2026-03-09
2020654457,", KALKALLO VIC 3064",KALKALLO,3064,New House & Land,4,2,2,294.0,CONTACT AGENT,,-37.529438,144.95955,https://www.domain.com.au/kalkallo-vic-3064-2020654457,2026-03-09
2020655346,", BEVERIDGE VIC 3753",BEVERIDGE,3753,House,4,2,2,366.0,"$702,000",702000.0,-37.47374,144.97458,https://www.domain.com.au/beveridge-vic-3753-2020655346,2026-03-09
2020657747,"931 Lyra, BEVERIDGE VIC 3753",BEVERIDGE,3753,House,4,2,2,350.0,"$651,500",651500.0,-37.474854,144.98575,https://www.domain.com.au/931-lyra-beveridge-vic-3753-2020657747,2026-03-09
2020657750,"5708 Mandalay, BEVERIDGE VIC 3753",BEVERIDGE,3753,House,4,2,2,350.0,"$666,200",666200.0,-37.480415,144.9457,https://www.domain.com.au/5708-mandalay-beveridge-vic-3753-2020657750,2026-03-09
2020657770,"5708 Mandalay, BEVERIDGE VIC 3753",BEVERIDGE,3753,House,4,2,2,350.0,"$639,800",639800.0,-37.480415,144.9457,https://www.domain.com.au/5708-mandalay-beveridge-vic-3753-2020657770,2026-03-09
2020657772,"521 Timbarra, BEVERIDGE VIC 3753",BEVERIDGE,3753,House,3,2,2,406.0,"$661,900",661900.0,-37.470947,144.96579,https://www.domain.com.au/521-timbarra-beveridge-vic-3753-2020657772,2026-03-09
2020657773,"521 Timbarra, BEVERIDGE VIC 3753",BEVERIDGE,3753,House,4,2,2,406.0,"$684,600",684600.0,-37.470947,144.96579,https://www.domain.com.au/521-timbarra-beveridge-vic-3753-2020657773,2026-03-09
2020658606,"521 Timbarra, BEVERIDGE VIC 3753",BEVERIDGE,3753,House,4,2,2,406.0,"$721,300",721300.0,-37.470947,144.96579,https://www.domain.com.au/521-timbarra-beveridge-vic-3753-2020658606,2026-03-09
2020636840,", KALKALLO VIC 3064",KALKALLO,3064,House,4,2,2,311.0,"From $692,000",692000.0,-37.529438,144.95955,https://www.domain.com.au/kalkallo-vic-3064-2020636840,2026-03-09
2020636850,", KALKALLO VIC 3064",KALKALLO,3064,House,4,2,2,453.0,"From $743,000",743000.0,-37.529438,144.95955,https://www.domain.com.au/kalkallo-vic-3064-2020636850,2026-03-09
2020640578,", KALKALLO VIC 3064",KALKALLO,3064,House,4,2,2,283.0,"From $666,000",666000.0,-37.529438,144.95955,https://www.domain.com.au/kalkallo-vic-3064-2020640578,2026-03-09
2020640579,", KALKALLO VIC 3064",KALKALLO,3064,House,4,2,2,263.0,"From $671,000",671000.0,-37.529438,144.95955,https://www.domain.com.au/kalkallo-vic-3064-2020640579,2026-03-09
2020640582,", KALKALLO VIC 3064",KALKALLO,3064,House,4,2,2,663.0,"From $851,000",851000.0,-37.529438,144.95955,https://www.domain.com.au/kalkallo-vic-3064-2020640582,2026-03-09
2020645661,"Lot 405 Alkyra Estate, BEVERIDGE VIC 3753",BEVERIDGE,3753,New House & Land,4,2,2,350.0,"$571,427",571427.0,-37.47121,144.96501,https://www.domain.com.au/lot-405-alkyra-estate-beveridge-vic-3753-2020645661,2026-03-09
2020647592,", BEVERIDGE VIC 3753",BEVERIDGE,3753,House,3,2,2,349.0,"$694,000",694000.0,-37.47374,144.97458,https://www.domain.com.au/beveridge-vic-3753-2020647592,2026-03-09
2020649887,"Invermay Circuit, MICKLEHAM VIC 3064",MICKLEHAM,3064,Vacant land,0,0,0,512.0,"$539,000.00",269500.0,-37.51899,144.90414,https://www.domain.com.au/invermay-circuit-mickleham-vic-3064-2020649887,2026-03-09
2020649920,"Invermay Circuit, MICKLEHAM VIC 3064",MICKLEHAM,3064,Vacant land,0,0,0,448.0,"$475,000.00",237500.0,-37.51899,144.90414,https://www.domain.com.au/invermay-circuit-mickleham-vic-3064-2020649920,2026-03-09
2020650050,"Invermay Circuit, MICKLEHAM VIC 3064",MICKLEHAM,3064,Vacant land,0,0,0,499.0,"$504,000.00",252000.0,-37.51899,144.90414,https://www.domain.com.au/invermay-circuit-mickleham-vic-3064-2020650050,2026-03-09
2020650196,"Invermay Circle, MICKLEHAM VIC 3064",MICKLEHAM,3064,Vacant land,0,0,0,512.0,"$539,000.00",269500.0,-37.51899,144.90414,https://www.domain.com.au/invermay-circle-mickleham-vic-3064-2020650196,2026-03-09
2020650207,"Invermay Circle, MICKLEHAM VIC 3064",MICKLEHAM,3064,Vacant land,0,0,0,448.0,"$539,000.00",269500.0,-37.51899,144.90414,https://www.domain.com.au/invermay-circle-mickleham-vic-3064-2020650207,2026-03-09
2020650638,"521 Timbarra, BEVERIDGE VIC 3753",BEVERIDGE,3753,House,4,2,2,406.0,"$684,600",684600.0,-37.470947,144.96579,https://www.domain.com.au/521-timbarra-beveridge-vic-3753-2020650638,2026-03-09
2020651162,", KALKALLO VIC 3064",KALKALLO,3064,House,3,2,2,221.0,"$620,950",620950.0,-37.529438,144.95955,https://www.domain.com.au/kalkallo-vic-3064-2020651162,2026-03-09
2020652067,"Invermay Circuit, MICKLEHAM VIC 3064",MICKLEHAM,3064,Vacant land,0,0,0,448.0,"$475,000.00",237500.0,-37.51899,144.90414,https://www.domain.com.au/invermay-circuit-mickleham-vic-3064-2020652067,2026-03-09
2020652083,"Invermay Circuit, MICKLEHAM VIC 3064",MICKLEHAM,3064,Vacant land,0,0,0,448.0,"$475,000.00",237500.0,-37.51899,144.90414,https://www.domain.com.au/invermay-circuit-mickleham-vic-3064-2020652083,2026-03-09
2020652095,"Invermay Circuit, MICKLEHAM VIC 3064",MICKLEHAM,3064,Vacant land,0,0,0,549.0,"$529,000.00",264500.0,-37.51899,144.90414,https://www.domain.com.au/invermay-circuit-mickleham-vic-3064-2020652095,2026-03-09
2020652156,"Invermay Circuit, MICKLEHAM VIC 3064",MICKLEHAM,3064,Vacant land,0,0,0,298.0,"$372,000.00",186000.0,-37.51899,144.90414,https://www.domain.com.au/invermay-circuit-mickleham-vic-3064-2020652156,2026-03-09
2020652166,"Invermay Circuit, MICKLEHAM VIC 3064",MICKLEHAM,3064,Vacant land,0,0,0,425.0,"$454,000.00",227000.0,-37.51899,144.90414,https://www.domain.com.au/invermay-circuit-mickleham-vic-3064-2020652166,2026-03-09
2020652195,"Invermay Circuit, MICKLEHAM VIC 3064",MICKLEHAM,3064,Vacant land,0,0,0,448.0,"$475,000.00",237500.0,-37.51899,144.90414,https://www.domain.com.au/invermay-circuit-mickleham-vic-3064-2020652195,2026-03-09
2020165615,"Lot 36 King St, WALLAN VIC 3756",WALLAN,3756,New House & Land,4,2,2,450.0,"$664,705",664705.0,-37.411125,144.99046,https://www.domain.com.au/lot-36-king-st-wallan-vic-3756-2020165615,2026-03-09
2020474426,"28 Goodman Avenue, KALKALLO VIC 3064",KALKALLO,3064,House,4,2,2,645.0,"$840,000 - $890,000",865000.0,-37.529438,144.96033,https://www.domain.com.au/28-goodman-avenue-kalkallo-vic-3064-2020474426,2026-03-09
2020624086,"4 Fitzpatrick Circuit, KALKALLO VIC 3064",KALKALLO,3064,House,3,2,3,354.0,INROOM AUCT 31 Mar from 6pm,18.5,-37.529434,144.96169,https://www.domain.com.au/4-fitzpatrick-circuit-kalkallo-vic-3064-2020624086,2026-03-09
2020625330,"124 Newbridge Boulevard, WALLAN VIC 3756",WALLAN,3756,Vacant land,0,0,0,416.0,Contact Agent,,-37.43108,144.99837,https://www.domain.com.au/124-newbridge-boulevard-wallan-vic-3756-2020625330,2026-03-09
2020625602,"Lot 5205 Domain Drive, BEVERIDGE VIC 3753",BEVERIDGE,3753,New House & Land,4,2,2,392.0,"$654,752",654752.0,-37.470474,144.94044,https://www.domain.com.au/lot-5205-domain-drive-beveridge-vic-3753-2020625602,2026-03-09
2020625606,"Lot 5205 Domain Drive, BEVERIDGE VIC 3753",BEVERIDGE,3753,New House & Land,4,2,2,392.0,"$644,640",644640.0,-37.470474,144.94044,https://www.domain.com.au/lot-5205-domain-drive-beveridge-vic-3753-2020625606,2026-03-09
2020625614,"Lot 5320 Atherton Street, BEVERIDGE VIC 3753",BEVERIDGE,3753,New House & Land,4,2,2,448.0,"$691,547",691547.0,-37.469967,144.94424,https://www.domain.com.au/lot-5320-atherton-street-beveridge-vic-3753-2020625614,2026-03-09
2020625620,"Lot 5332 Ambient Cresent, BEVERIDGE VIC 3753",BEVERIDGE,3753,New House & Land,4,2,2,389.0,"$644,718",644718.0,-37.46801,144.94572,https://www.domain.com.au/lot-5332-ambient-cresent-beveridge-vic-3753-2020625620,2026-03-09
2020625623,"Lot 5332 Ambient Cresent, BEVERIDGE VIC 3753",BEVERIDGE,3753,New House & Land,4,2,2,389.0,"$639,920",639920.0,-37.46801,144.94572,https://www.domain.com.au/lot-5332-ambient-cresent-beveridge-vic-3753-2020625623,2026-03-09
2020627784,"5703 Piebald Street, BEVERIDGE VIC 3753",BEVERIDGE,3753,New House & Land,4,2,2,350.0,"$586,050",586050.0,-37.47374,144.97458,https://www.domain.com.au/5703-piebald-street-beveridge-vic-3753-2020627784,2026-03-09
2020631128,", BEVERIDGE VIC 3753",BEVERIDGE,3753,New House & Land,4,2,1,221.0,CONTACT AGENT,,-37.47374,144.97458,https://www.domain.com.au/beveridge-vic-3753-2020631128,2026-03-09
2020632501,", BEVERIDGE VIC 3753",BEVERIDGE,3753,House,4,2,2,392.0,"FROM $705,000",705000.0,-37.47374,144.97458,https://www.domain.com.au/beveridge-vic-3753-2020632501,2026-03-09
2020634023,"Lot 405 Raven Circuit, BEVERIDGE VIC 3753",BEVERIDGE,3753,New House & Land,4,2,2,350.0,"$599,920",599920.0,-37.46894,144.96402,https://www.domain.com.au/lot-405-raven-circuit-beveridge-vic-3753-2020634023,2026-03-09
2020635306,", BEVERIDGE VIC 3753",BEVERIDGE,3753,New House & Land,4,2,1,221.0,CONTACT AGENT,,-37.47374,144.97458,https://www.domain.com.au/beveridge-vic-3753-2020635306,2026-03-09
2020642034,", KALKALLO VIC 3064",KALKALLO,3064,New House & Land,4,2,2,294.0,CONTACT AGENT,,-37.529438,144.95955,https://www.domain.com.au/kalkallo-vic-3064-2020642034,2026-03-09
2020642754,"4 Fellows Road, MICKLEHAM VIC 3064",MICKLEHAM,3064,Vacant land,0,0,0,450.0,Contact Agent,,-37.522667,144.90216,https://www.domain.com.au/4-fellows-road-mickleham-vic-3064-2020642754,2026-03-09
2020642859,", BEVERIDGE VIC 3753",BEVERIDGE,3753,New House & Land,4,2,2,301.0,CONTACT AGENT,,-37.47374,144.97458,https://www.domain.com.au/beveridge-vic-3753-2020642859,2026-03-09
2020643368,", WALLAN VIC 3756",WALLAN,3756,House,4,2,2,420.0,"$991,000",991000.0,-37.406693,144.97983,https://www.domain.com.au/wallan-vic-3756-2020643368,2026-03-09
2020643642,"Lot 1635 Lewis Street, BEVERIDGE VIC 3753",BEVERIDGE,3753,New House & Land,4,2,2,361.0,"$648,240",648240.0,-37.477257,144.9656,https://www.domain.com.au/lot-1635-lewis-street-beveridge-vic-3753-2020643642,2026-03-09
2020643661,"Lot 2229 Macsfield Rd, WALLAN VIC 3756",WALLAN,3756,New House & Land,4,2,2,400.0,"$604,427",604427.0,-37.434803,144.9806,https://www.domain.com.au/lot-2229-macsfield-rd-wallan-vic-3756-2020643661,2026-03-09
2019699378,"29 Beacon Close, BEVERIDGE VIC 3753",BEVERIDGE,3753,Vacant land,0,0,0,533.0,"$390,000 $429,000",409500.0,-37.471783,144.95024,https://www.domain.com.au/29-beacon-close-beveridge-vic-3753-2019699378,2026-03-09
2020590637,"61443 Tufted Street, KALKALLO VIC 3064",KALKALLO,3064,New House & Land,4,2,2,417.0,"$730,537",730537.0,-37.529438,144.95955,https://www.domain.com.au/61443-tufted-street-kalkallo-vic-3064-2020590637,2026-03-09
2020591660,"22 Elisha Court, WALLAN VIC 3756",WALLAN,3756,New House & Land,3,2,2,586.0,"$670,275",670275.0,-37.412357,144.98863,https://www.domain.com.au/22-elisha-court-wallan-vic-3756-2020591660,2026-03-09
2020595972,"61402 Masonry Street, KALKALLO VIC 3064",KALKALLO,3064,New House & Land,4,2,2,350.0,"$649,328",649328.0,-37.529438,144.95955,https://www.domain.com.au/61402-masonry-street-kalkallo-vic-3064-2020595972,2026-03-09
2020605337,"Lot 516 Austral St, BEVERIDGE VIC 3753",BEVERIDGE,3753,New House & Land,4,2,2,448.0,"$717,205",717205.0,-37.470722,144.96622,https://www.domain.com.au/lot-516-austral-st-beveridge-vic-3753-2020605337,2026-03-09
2020605348,"Lot 1045 Lily Dr, WALLAN VIC 3756",WALLAN,3756,New House & Land,4,2,2,654.0,"$790,855",790855.0,-37.40038,144.97043,https://www.domain.com.au/lot-1045-lily-dr-wallan-vic-3756-2020605348,2026-03-09
2020605713,"2232 Macsfield Road, WALLAN VIC 3756",WALLAN,3756,New House & Land,4,2,2,512.0,"$690,702",690702.0,-37.434803,144.9806,https://www.domain.com.au/2232-macsfield-road-wallan-vic-3756-2020605713,2026-03-09
2020605717,"2232 Macsfield Road, WALLAN VIC 3756",WALLAN,3756,New House & Land,4,2,2,512.0,"$815,180",815180.0,-37.434803,144.9806,https://www.domain.com.au/2232-macsfield-road-wallan-vic-3756-2020605717,2026-03-09
2020610831,"16 Alisterus Road, KALKALLO VIC 3064",KALKALLO,3064,House,4,2,2,0.0,Contact Agent,,-37.515762,144.95332,https://www.domain.com.au/16-alisterus-road-kalkallo-vic-3064-2020610831,2026-03-09
2020611376,"LOT 904 Catenary Street, BEVERIDGE VIC 3753",BEVERIDGE,3753,New House & Land,4,2,2,350.0,"$591,366",591366.0,-37.47374,144.97458,https://www.domain.com.au/lot-904-catenary-street-beveridge-vic-3753-2020611376,2026-03-09
2020611473,"lot 906 Catenary Street, BEVERIDGE VIC 3753",BEVERIDGE,3753,New House & Land,4,2,2,350.0,"$588,917",588917.0,-37.47374,144.97458,https://www.domain.com.au/lot-906-catenary-street-beveridge-vic-3753-2020611473,2026-03-09
2020611507,"LOT 931 Hummuck Circuit, BEVERIDGE VIC 3753",BEVERIDGE,3753,New House & Land,4,2,2,350.0,"$592,221",592221.0,-37.47374,144.97458,https://www.domain.com.au/lot-931-hummuck-circuit-beveridge-vic-3753-2020611507,2026-03-09
2020615053,"Lot 404 Alkyra Estate, BEVERIDGE VIC 3753",BEVERIDGE,3753,New House & Land,3,2,2,294.0,"$546,100",546100.0,-37.47121,144.96501,https://www.domain.com.au/lot-404-alkyra-estate-beveridge-vic-3753-2020615053,2026-03-09
2020615073,"Lot 404 Alkyra Estate, BEVERIDGE VIC 3753",BEVERIDGE,3753,New House & Land,4,2,2,294.0,"$566,150",566150.0,-37.47121,144.96501,https://www.domain.com.au/lot-404-alkyra-estate-beveridge-vic-3753-2020615073,2026-03-09
2020616410,"Lot 904 Catenary Street, BEVERIDGE VIC 3753",BEVERIDGE,3753,New House & Land,4,2,2,350.0,"$599,427",599427.0,-37.47374,144.97458,https://www.domain.com.au/lot-904-catenary-street-beveridge-vic-3753-2020616410,2026-03-09
2020616448,"Lot 906 Catenary Street, BEVERIDGE VIC 3753",BEVERIDGE,3753,New House & Land,4,2,2,350.0,"$621,920",621920.0,-37.47374,144.97458,https://www.domain.com.au/lot-906-catenary-street-beveridge-vic-3753-2020616448,2026-03-09
2020616607,"404 Raven Circuit, BEVERIDGE VIC 3753",BEVERIDGE,3753,New House & Land,3,2,2,294.0,"$544,100",544100.0,-37.46894,144.96402,https://www.domain.com.au/404-raven-circuit-beveridge-vic-3753-2020616607,2026-03-09
2020620490,"19 Fadaro Street, KALKALLO VIC 3064",KALKALLO,3064,House,5,2,2,400.0,"INROOM AUCT $670,000 - $737,000",703500.0,-37.53116,144.96564,https://www.domain.com.au/19-fadaro-street-kalkallo-vic-3064-2020620490,2026-03-09
2020622940,", BEVERIDGE VIC 3753",BEVERIDGE,3753,New House & Land,4,2,2,364.0,CONTACT AGENT,,-37.47374,144.97458,https://www.domain.com.au/beveridge-vic-3753-2020622940,2026-03-09
2020623360,"18 Zelkova Street, KALKALLO VIC 3064",KALKALLO,3064,House,3,2,2,241.0,"$550,000 - $600,000",575000.0,-37.518517,144.95367,https://www.domain.com.au/18-zelkova-street-kalkallo-vic-3064-2020623360,2026-03-09
2020567879,"37338 Bloodwood Street, KALKALLO VIC 3064",KALKALLO,3064,New House & Land,5,3,2,512.0,"$1,021,900",1021900.0,-37.51617,144.95886,https://www.domain.com.au/37338-bloodwood-street-kalkallo-vic-3064-2020567879,2026-03-09
2020567880,"60714 Marasmius Street, KALKALLO VIC 3064",KALKALLO,3064,New House & Land,4,2,2,313.0,"$625,830",625830.0,-37.529438,144.95955,https://www.domain.com.au/60714-marasmius-street-kalkallo-vic-3064-2020567880,2026-03-09
2020569608,"6429 Beacon Close, BEVERIDGE VIC 3753",BEVERIDGE,3753,New House & Land,4,2,2,388.0,"$614,866",614866.0,-37.471542,144.95049,https://www.domain.com.au/6429-beacon-close-beveridge-vic-3753-2020569608,2026-03-09
2020576773,"5217 Stance Street, BEVERIDGE VIC 3753",BEVERIDGE,3753,New House & Land,4,2,2,392.0,"$634,250",634250.0,-37.468636,144.94463,https://www.domain.com.au/5217-stance-street-beveridge-vic-3753-2020576773,2026-03-09
2020580083,"LOT 904 LYRA ESTATE, BEVERIDGE VIC 3753",BEVERIDGE,3753,New House & Land,4,2,2,350.0,"$591,316",591316.0,-37.474854,144.98575,https://www.domain.com.au/lot-904-lyra-estate-beveridge-vic-3753-2020580083,2026-03-09
2020580090,"LOT 906 LYRA ESTATE, BEVERIDGE VIC 3753",BEVERIDGE,3753,New House & Land,4,2,2,350.0,"$588,867",588867.0,-37.474854,144.98575,https://www.domain.com.au/lot-906-lyra-estate-beveridge-vic-3753-2020580090,2026-03-09
2020581426,"7 Railway Pde, KALKALLO VIC 3064",KALKALLO,3064,House,4,2,2,0.0,Contact Agent,,-37.516598,144.95183,https://www.domain.com.au/7-railway-pde-kalkallo-vic-3064-2020581426,2026-03-09
2020582098,"Lot 60638 Inkcap Street, BEVERIDGE VIC 3753",BEVERIDGE,3753,New Home Designs,4,2,2,0.0,"$787,795",787795.0,-37.47374,144.97458,https://www.domain.com.au/lot-60638-inkcap-street-beveridge-vic-3753-2020582098,2026-03-09
2020582099,"Lot 60638 Inkcap Street, BEVERIDGE VIC 3753",BEVERIDGE,3753,New Home Designs,5,3,2,0.0,"$1,037,495",1037495.0,-37.47374,144.97458,https://www.domain.com.au/lot-60638-inkcap-street-beveridge-vic-3753-2020582099,2026-03-09
2020582338,"Lot 60604 Plana Street, BEVERIDGE VIC 3753",BEVERIDGE,3753,New Home Designs,4,2,2,0.0,"$807,395",807395.0,-37.47374,144.97458,https://www.domain.com.au/lot-60604-plana-street-beveridge-vic-3753-2020582338,2026-03-09
2020585489,"Lot 2175 Braconid Street, BEVERIDGE VIC 3753",BEVERIDGE,3753,New House & Land,4,2,2,304.0,"$630,400 To $640,400",635400.0,-37.47374,144.97458,https://www.domain.com.au/lot-2175-braconid-street-beveridge-vic-3753-2020585489,2026-03-09
2020586365,"Lot 5703 Peibald Street, BEVERIDGE VIC 3753",BEVERIDGE,3753,New House & Land,4,2,2,350.0,"$626,718",626718.0,-37.47374,144.97458,https://www.domain.com.au/lot-5703-peibald-street-beveridge-vic-3753-2020586365,2026-03-09
2020586404,"Lot 5707 Peibald Street, BEVERIDGE VIC 3753",BEVERIDGE,3753,New House & Land,4,2,2,350.0,"$631,658",631658.0,-37.47374,144.97458,https://www.domain.com.au/lot-5707-peibald-street-beveridge-vic-3753-2020586404,2026-03-09
2020586438,"LOT 943 Hummock Circuit, BEVERIDGE VIC 3753",BEVERIDGE,3753,New House & Land,4,2,2,350.0,"$630,718",630718.0,-37.47374,144.97458,https://www.domain.com.au/lot-943-hummock-circuit-beveridge-vic-3753-2020586438,2026-03-09
2020586466,"lOT 905 Catenary Street, BEVERIDGE VIC 3753",BEVERIDGE,3753,New House & Land,4,2,2,350.0,"$629,418",629418.0,-37.47374,144.97458,https://www.domain.com.au/lot-905-catenary-street-beveridge-vic-3753-2020586466,2026-03-09
2020588321,"616 Colethe Road, BEVERIDGE VIC 3753",BEVERIDGE,3753,New House & Land,4,2,2,392.0,"$682,960",682960.0,-37.473892,144.98769,https://www.domain.com.au/616-colethe-road-beveridge-vic-3753-2020588321,2026-03-09
2020589904,"2214 Wallara Waters Boulevard, WALLAN VIC 3756",WALLAN,3756,New House & Land,4,2,2,535.0,"$615,920",615920.0,-37.424873,144.99448,https://www.domain.com.au/2214-wallara-waters-boulevard-wallan-vic-3756-2020589904,2026-03-09
2020590417,"22 Coolangatta Dr, MICKLEHAM VIC 3064",MICKLEHAM,3064,House,4,2,2,0.0,BRAND NEW | MERRIFIELD,,-37.519825,144.90787,https://www.domain.com.au/22-coolangatta-dr-mickleham-vic-3064-2020590417,2026-03-09
2020590511,"61406 Masonry Street, KALKALLO VIC 3064",KALKALLO,3064,New House & Land,4,2,2,350.0,"$697,388",697388.0,-37.529438,144.95955,https://www.domain.com.au/61406-masonry-street-kalkallo-vic-3064-2020590511,2026-03-09
2020590575,"61431 Tufted Street, KALKALLO VIC 3064",KALKALLO,3064,New House & Land,4,2,2,350.0,"$840,270",840270.0,-37.529438,144.95955,https://www.domain.com.au/61431-tufted-street-kalkallo-vic-3064-2020590575,2026-03-09
2020165164,"Lot 3 Raimeno Rd, WALLAN VIC 3756",WALLAN,3756,New House & Land,4,2,2,425.0,"$644,480",644480.0,-37.411434,144.99092,https://www.domain.com.au/lot-3-raimeno-rd-wallan-vic-3756-2020165164,2026-03-09
2020165165,"Lot 1 King St, WALLAN VIC 3756",WALLAN,3756,New House & Land,3,2,2,457.0,"$636,375",636375.0,-37.41109,144.99138,https://www.domain.com.au/lot-1-king-st-wallan-vic-3756-2020165165,2026-03-09
2020165465,"Lot 6 Raimeno Rd, WALLAN VIC 3756",WALLAN,3756,New House & Land,4,2,2,428.0,"$659,705",659705.0,-37.411686,144.99088,https://www.domain.com.au/lot-6-raimeno-rd-wallan-vic-3756-2020165465,2026-03-09
2020165603,"Lot 7 Raimeno Rd, WALLAN VIC 3756",WALLAN,3756,New House & Land,3,2,2,429.0,"$643,510",643510.0,-37.411808,144.99086,https://www.domain.com.au/lot-7-raimeno-rd-wallan-vic-3756-2020165603,2026-03-09
2020165610,"Lot 34 King St, WALLAN VIC 3756",WALLAN,3756,New House & Land,4,2,2,453.0,"$653,550",653550.0,-37.411144,144.99063,https://www.domain.com.au/lot-34-king-st-wallan-vic-3756-2020165610,2026-03-09
2020165613,"Lot 9 Raimeno Rd, WALLAN VIC 3756",WALLAN,3756,New House & Land,4,2,2,431.0,"$663,590",663590.0,-37.411934,144.99083,https://www.domain.com.au/lot-9-raimeno-rd-wallan-vic-3756-2020165613,2026-03-09
2020165616,"Lot 12 Raimeno Rd, WALLAN VIC 3756",WALLAN,3756,New House & Land,3,2,2,427.0,"$629,580",629580.0,-37.412186,144.99078,https://www.domain.com.au/lot-12-raimeno-rd-wallan-vic-3756-2020165616,2026-03-09
2020551033,"Lot 5634 Mandalay Estate, BEVERIDGE VIC 3753",BEVERIDGE,3753,New House & Land,4,2,2,443.0,"$649,640",649640.0,-37.480415,144.9457,https://www.domain.com.au/lot-5634-mandalay-estate-beveridge-vic-3753-2020551033,2026-03-09
2020551035,"Lot 6429 Mandalay Estate, BEVERIDGE VIC 3753",BEVERIDGE,3753,New House & Land,4,2,2,388.0,"$608,427",608427.0,-37.480415,144.9457,https://www.domain.com.au/lot-6429-mandalay-estate-beveridge-vic-3753-2020551035,2026-03-09
2020555268,"29 Margaretta Circuit, MICKLEHAM VIC 3064",MICKLEHAM,3064,Vacant land,0,0,0,574.0,$530k - $560k,545.0,-37.51926,144.9068,https://www.domain.com.au/29-margaretta-circuit-mickleham-vic-3064-2020555268,2026-03-09
2020567776,"Lot 60428 Seaberry Road, BEVERIDGE VIC 3753",BEVERIDGE,3753,New House & Land,4,2,2,400.0,"$732,920",732920.0,-37.47374,144.97458,https://www.domain.com.au/lot-60428-seaberry-road-beveridge-vic-3753-2020567776,2026-03-09
2020567778,"Lot 60512 Andestic Road (Crn), BEVERIDGE VIC 3753",BEVERIDGE,3753,New House & Land,4,2,2,416.0,"$691,830",691830.0,-37.47374,144.97458,https://www.domain.com.au/lot-60512-andestic-road-crn-beveridge-vic-3753-2020567778,2026-03-09
2020567781,"Lot 60702 Hillsborough Road, BEVERIDGE VIC 3753",BEVERIDGE,3753,New House & Land,4,2,2,400.0,"$716,427",716427.0,-37.47374,144.97458,https://www.domain.com.au/lot-60702-hillsborough-road-beveridge-vic-3753-2020567781,2026-03-09
2020567786,"Lot 61563 Lambkin Road, BEVERIDGE VIC 3753",BEVERIDGE,3753,New House & Land,4,2,2,392.0,"$712,790",712790.0,-37.47374,144.97458,https://www.domain.com.au/lot-61563-lambkin-road-beveridge-vic-3753-2020567786,2026-03-09
2020567807,"Lot 157 Egret Street, BEVERIDGE VIC 3753",BEVERIDGE,3753,New House & Land,4,2,2,294.0,"$591,640",591640.0,-37.47108,144.96452,https://www.domain.com.au/lot-157-egret-street-beveridge-vic-3753-2020567807,2026-03-09
2020567808,"Lot 155 Egret Street, BEVERIDGE VIC 3753",BEVERIDGE,3753,New House & Land,4,2,2,350.0,"$608,320",608320.0,-37.47108,144.96452,https://www.domain.com.au/lot-155-egret-street-beveridge-vic-3753-2020567808,2026-03-09
2020567872,"5222 Ambient Crescent, BEVERIDGE VIC 3753",BEVERIDGE,3753,New House & Land,4,2,2,401.0,"$608,790",608790.0,-37.46801,144.94572,https://www.domain.com.au/5222-ambient-crescent-beveridge-vic-3753-2020567872,2026-03-09
2020567873,"5305 Ambient Crescent, BEVERIDGE VIC 3753",BEVERIDGE,3753,New House & Land,4,2,2,400.0,"$622,730",622730.0,-37.46801,144.94572,https://www.domain.com.au/5305-ambient-crescent-beveridge-vic-3753-2020567873,2026-03-09
2020567874,"5330 Ambient Crescent, BEVERIDGE VIC 3753",BEVERIDGE,3753,New House & Land,4,2,2,393.0,"$646,020",646020.0,-37.46801,144.94572,https://www.domain.com.au/5330-ambient-crescent-beveridge-vic-3753-2020567874,2026-03-09
2020567877,"5333 Ball Street, BEVERIDGE VIC 3753",BEVERIDGE,3753,New House & Land,4,2,2,393.0,"$619,816",619816.0,-37.469315,144.94423,https://www.domain.com.au/5333-ball-street-beveridge-vic-3753-2020567877,2026-03-09
2020532842,"King Street, WALLAN VIC 3756",WALLAN,3756,Vacant land,0,0,0,1.44,"$2,460,000 - $2,580,000",2520000.0,-37.409973,144.98122,https://www.domain.com.au/king-street-wallan-vic-3756-2020532842,2026-03-09
2020536963,"43 Mallaig Drive, BEVERIDGE VIC 3753",BEVERIDGE,3753,House,4,2,2,0.0,"$590,000 - $630,000",610000.0,-37.476963,144.96858,https://www.domain.com.au/43-mallaig-drive-beveridge-vic-3753-2020536963,2026-03-09
2020538400,"60618 Inkcap Street, KALKALLO VIC 3064",KALKALLO,3064,New House & Land,3,2,2,313.0,"$596,921",596921.0,-37.529438,144.95955,https://www.domain.com.au/60618-inkcap-street-kalkallo-vic-3064-2020538400,2026-03-09
2020541430,"5516 Ambient Crescent, BEVERIDGE VIC 3753",BEVERIDGE,3753,New House & Land,5,5,2,555.0,"$1,065,500",1065500.0,-37.46801,144.94572,https://www.domain.com.au/5516-ambient-crescent-beveridge-vic-3753-2020541430,2026-03-09
2020542295,"43 Whiteside Street, BEVERIDGE VIC 3753",BEVERIDGE,3753,Vacant land,0,0,0,428.0,"Private Sale $399,900 - $425,000",412450.0,-37.476482,144.96013,https://www.domain.com.au/43-whiteside-street-beveridge-vic-3753-2020542295,2026-03-09
2020543215,"Lot 438 Alkyra Estate, BEVERIDGE VIC 3753",BEVERIDGE,3753,New House & Land,4,2,2,418.0,"$590,427",590427.0,-37.47121,144.96501,https://www.domain.com.au/lot-438-alkyra-estate-beveridge-vic-3753-2020543215,2026-03-09
2020543436,"2637 Punt way, DONNYBROOK VIC 3064",DONNYBROOK,3064,New House & Land,4,2,2,400.0,"$733,789",733789.0,-37.52888,144.99841,https://www.domain.com.au/2637-punt-way-donnybrook-vic-3064-2020543436,2026-03-09
2020543553,"2640 Punt Way, DONNYBROOK VIC 3064",DONNYBROOK,3064,New House & Land,4,2,2,448.0,"$786,086",786086.0,-37.52888,144.99841,https://www.domain.com.au/2640-punt-way-donnybrook-vic-3064-2020543553,2026-03-09
2020543641,"2641 Punt way, DONNYBROOK VIC 3064",DONNYBROOK,3064,New House & Land,4,2,2,400.0,"$728,443",728443.0,-37.52888,144.99841,https://www.domain.com.au/2641-punt-way-donnybrook-vic-3064-2020543641,2026-03-09
2020546200,"lOT 60923 Basalt Street, BEVERIDGE VIC 3753",BEVERIDGE,3753,New House & Land,4,2,2,350.0,"$662,417",662417.0,-37.47374,144.97458,https://www.domain.com.au/lot-60923-basalt-street-beveridge-vic-3753-2020546200,2026-03-09
2020547600,"Lot 1518 Wallara Waters, WALLAN VIC 3756",WALLAN,3756,New House & Land,4,2,2,512.0,"$708,553",708553.0,-37.424873,144.99448,https://www.domain.com.au/lot-1518-wallara-waters-wallan-vic-3756-2020547600,2026-03-09
2020547603,"Lot 1518 Wallara Waters, WALLAN VIC 3756",WALLAN,3756,New House & Land,4,2,2,512.0,"$676,829",676829.0,-37.424873,144.99448,https://www.domain.com.au/lot-1518-wallara-waters-wallan-vic-3756-2020547603,2026-03-09
2020547605,"Lot 1518 Wallara Water, WALLAN VIC 3756",WALLAN,3756,New House & Land,4,2,2,512.0,"$682,367",682367.0,-37.406693,144.97983,https://www.domain.com.au/lot-1518-wallara-water-wallan-vic-3756-2020547605,2026-03-09
2020549476,"Lot 2903 Igneous way, DONNYBROOK VIC 3064",DONNYBROOK,3064,New Home Designs,5,3,2,0.0,"$1,034,495",1034495.0,-37.52918,144.99655,https://www.domain.com.au/lot-2903-igneous-way-donnybrook-vic-3064-2020549476,2026-03-09
2020549479,"Lot 5774 Invermay Circuit, MICKLEHAM VIC 3064",MICKLEHAM,3064,New Home Designs,5,3,2,0.0,"$991,195",991195.0,-37.51899,144.90414,https://www.domain.com.au/lot-5774-invermay-circuit-mickleham-vic-3064-2020549479,2026-03-09
2020549884,"11 Ringtail Place, BEVERIDGE VIC 3753",BEVERIDGE,3753,House,4,2,2,400.0,"$770,000",770000.0,-37.480133,144.95924,https://www.domain.com.au/11-ringtail-place-beveridge-vic-3753-2020549884,2026-03-09
2020550472,"16 Beavers Street, MICKLEHAM VIC 3064",MICKLEHAM,3064,House,3,2,2,0.0,"$595,000 - $610,000",602500.0,-37.52386,144.89911,https://www.domain.com.au/16-beavers-street-mickleham-vic-3064-2020550472,2026-03-09
2020551005,"Lot 5701 Mandalay estate, BEVERIDGE VIC 3753",BEVERIDGE,3753,New House & Land,4,2,2,350.0,"$593,427",593427.0,-37.480415,144.9457,https://www.domain.com.au/lot-5701-mandalay-estate-beveridge-vic-3753-2020551005,2026-03-09
2020551017,"Lot 5703 Mandalay estate, BEVERIDGE VIC 3753",BEVERIDGE,3753,New House & Land,4,2,2,392.0,"$638,240",638240.0,-37.480415,144.9457,https://www.domain.com.au/lot-5703-mandalay-estate-beveridge-vic-3753-2020551017,2026-03-09
2020551030,"Lot 5701 Mandalay estate, BEVERIDGE VIC 3753",BEVERIDGE,3753,New House & Land,4,3,2,350.0,"$766,000",766000.0,-37.480415,144.9457,https://www.domain.com.au/lot-5701-mandalay-estate-beveridge-vic-3753-2020551030,2026-03-09
2019755026,"Lot 37245 15 UGADI WALK, KALKALLO VIC 3064",KALKALLO,3064,Townhouse,4,2,2,208.0,"$579,900",579900.0,-37.51567,144.96301,https://www.domain.com.au/lot-37245-15-ugadi-walk-kalkallo-vic-3064-2019755026,2026-03-09
2020490406,"Lot 60738 Inkap Street, BEVERIDGE VIC 3753",BEVERIDGE,3753,Townhouse,3,2,2,0.0,"$589,950",589950.0,-37.47374,144.97458,https://www.domain.com.au/lot-60738-inkap-street-beveridge-vic-3753-2020490406,2026-03-09
2020498445,"24 Camberwell Parade, MICKLEHAM VIC 3064",MICKLEHAM,3064,Vacant land,0,0,0,221.0,"$300,000-$330,000",315000.0,-37.52882,144.90144,https://www.domain.com.au/24-camberwell-parade-mickleham-vic-3064-2020498445,2026-03-09
2020500882,"2A Vallence Court, WALLAN VIC 3756",WALLAN,3756,Apartment / Unit / Flat,2,1,2,0.0,Contact Agent,,-37.415443,144.98842,https://www.domain.com.au/2a-vallence-court-wallan-vic-3756-2020500882,2026-03-09
2020507619,"Wallara Waters Boulevard, WALLAN VIC 3756",WALLAN,3756,Vacant land,0,0,0,400.0,"$345,000 - $25k off bonus* for a limited time",172512.5,-37.424873,144.99448,https://www.domain.com.au/wallara-waters-boulevard-wallan-vic-3756-2020507619,2026-03-09
2020507629,"Wallara Waters Boulevard, WALLAN VIC 3756",WALLAN,3756,Vacant land,0,0,0,535.0,"$365,000 - $25k off bonus* for a limited time",182512.5,-37.424873,144.99448,https://www.domain.com.au/wallara-waters-boulevard-wallan-vic-3756-2020507629,2026-03-09
2020507685,"2232 Macsfield Road, WALLAN VIC 3756",WALLAN,3756,Vacant land,0,0,0,512.0,"$395,000",395000.0,-37.434803,144.9806,https://www.domain.com.au/2232-macsfield-road-wallan-vic-3756-2020507685,2026-03-09
2020507697,"Wallara Waters Boulevard, WALLAN VIC 3756",WALLAN,3756,Vacant land,0,0,0,448.0,"$360,000 - $25k off bonus* for a limited time",180012.5,-37.424873,144.99448,https://www.domain.com.au/wallara-waters-boulevard-wallan-vic-3756-2020507697,2026-03-09
2020507713,"Wallara Waters Boulevard, WALLAN VIC 3756",WALLAN,3756,Vacant land,0,0,0,400.0,"$345,000 - $25k off bonus* for a limited time",172512.5,-37.424873,144.99448,https://www.domain.com.au/wallara-waters-boulevard-wallan-vic-3756-2020507713,2026-03-09
2020507721,"Wallara Waters Boulevard, WALLAN VIC 3756",WALLAN,3756,Vacant land,0,0,0,448.0,"$360,000 - $25k off bonus* for a limited time",180012.5,-37.424873,144.99448,https://www.domain.com.au/wallara-waters-boulevard-wallan-vic-3756-2020507721,2026-03-09
2020508854,"13 Princes Circuit, WALLAN VIC 3756",WALLAN,3756,House,4,2,1,336.0,"$540,000-$585,000",562500.0,-37.422695,144.99564,https://www.domain.com.au/13-princes-circuit-wallan-vic-3756-2020508854,2026-03-09
2020509863,"Lot 60714 Marasmius Street, KALKALLO VIC 3064",KALKALLO,3064,New House & Land,4,2,2,313.0,"$632,427",632427.0,-37.529438,144.95955,https://www.domain.com.au/lot-60714-marasmius-street-kalkallo-vic-3064-2020509863,2026-03-09
2020509968,"Lot 61543 Lambkin Road, KALKALLO VIC 3064",KALKALLO,3064,New House & Land,4,2,2,350.0,"$678,920",678920.0,-37.529438,144.95955,https://www.domain.com.au/lot-61543-lambkin-road-kalkallo-vic-3064-2020509968,2026-03-09
2020518662,"14 Camden Drive, KALKALLO VIC 3064",KALKALLO,3064,House,4,3,4,350.0,Contact Agent,,-37.525936,144.9609,https://www.domain.com.au/14-camden-drive-kalkallo-vic-3064-2020518662,2026-03-09
2020520498,"22 Echidna Drive, BEVERIDGE VIC 3753",BEVERIDGE,3753,House,4,2,2,326.0,"$635,000",635000.0,-37.475124,144.9603,https://www.domain.com.au/22-echidna-drive-beveridge-vic-3753-2020520498,2026-03-09
2020526641,"Lot 1638 Lewis Street, BEVERIDGE VIC 3753",BEVERIDGE,3753,New House & Land,4,2,2,323.0,"$594,427",594427.0,-37.477257,144.9656,https://www.domain.com.au/lot-1638-lewis-street-beveridge-vic-3753-2020526641,2026-03-09
2020526668,"Lot 2175 Braconid Street, BEVERIDGE VIC 3753",BEVERIDGE,3753,New House & Land,4,2,2,304.0,"$564,105",564105.0,-37.47374,144.97458,https://www.domain.com.au/lot-2175-braconid-street-beveridge-vic-3753-2020526668,2026-03-09
2020526679,"Lot 419 Alkyra Estate, BEVERIDGE VIC 3753",BEVERIDGE,3753,New House & Land,4,2,2,436.0,"$636,640",636640.0,-37.47121,144.96501,https://www.domain.com.au/lot-419-alkyra-estate-beveridge-vic-3753-2020526679,2026-03-09
2020526771,"Lot 441 Spafield Road, BEVERIDGE VIC 3753",BEVERIDGE,3753,New House & Land,4,2,2,350.0,"$605,427",605427.0,-37.470806,144.98564,https://www.domain.com.au/lot-441-spafield-road-beveridge-vic-3753-2020526771,2026-03-09
2020527396,"Lot 2151 Butterfly Street, BEVERIDGE VIC 3753",BEVERIDGE,3753,New House & Land,4,2,2,409.0,"$648,105",648105.0,-37.47374,144.97458,https://www.domain.com.au/lot-2151-butterfly-street-beveridge-vic-3753-2020527396,2026-03-09
2020472266,"Lot 438 Raven Circuit (Alkyra), BEVERIDGE VIC 3753",BEVERIDGE,3753,New House & Land,4,2,2,438.0,"$613,708",613708.0,-37.47121,144.96501,https://www.domain.com.au/lot-438-raven-circuit-alkyra-beveridge-vic-3753-2020472266,2026-03-09
2020472665,"31 Stringybark Avenue, WALLAN VIC 3756",WALLAN,3756,House,4,2,2,0.0,$640k- $680k,660.0,-37.417828,144.96448,https://www.domain.com.au/31-stringybark-avenue-wallan-vic-3756-2020472665,2026-03-09
2020474052,"LOT 2205 Wallara Waters Estate, WALLAN VIC 3756",WALLAN,3756,New House & Land,4,2,2,400.0,"$610,407",610407.0,-37.406693,144.97983,https://www.domain.com.au/lot-2205-wallara-waters-estate-wallan-vic-3756-2020474052,2026-03-09
2020474059,"LOT 2206 Wallara Waters Estate, WALLAN VIC 3756",WALLAN,3756,New House & Land,4,2,2,400.0,"$612,856",612856.0,-37.406693,144.97983,https://www.domain.com.au/lot-2206-wallara-waters-estate-wallan-vic-3756-2020474059,2026-03-09
2020474061,"LOT 2226 Wallara Waters Estate, WALLAN VIC 3756",WALLAN,3756,New House & Land,4,2,2,400.0,"$626,900",626900.0,-37.406693,144.97983,https://www.domain.com.au/lot-2226-wallara-waters-estate-wallan-vic-3756-2020474061,2026-03-09
2020474063,"LOT 2229 Wallara Waters Estate, WALLAN VIC 3756",WALLAN,3756,New House & Land,4,2,2,400.0,"$631,698",631698.0,-37.406693,144.97983,https://www.domain.com.au/lot-2229-wallara-waters-estate-wallan-vic-3756-2020474063,2026-03-09
2020474071,"LOT 2243 Wallara Waters Estate, WALLAN VIC 3756",WALLAN,3756,New House & Land,4,2,2,400.0,"$647,433",647433.0,-37.406693,144.97983,https://www.domain.com.au/lot-2243-wallara-waters-estate-wallan-vic-3756-2020474071,2026-03-09
2020474073,"LOT 2244 Wallara Waters Estate, WALLAN VIC 3756",WALLAN,3756,New House & Land,4,2,2,400.0,"$652,779",652779.0,-37.406693,144.97983,https://www.domain.com.au/lot-2244-wallara-waters-estate-wallan-vic-3756-2020474073,2026-03-09
2020474074,"LOT 2246 Wallara Waters Estate, WALLAN VIC 3756",WALLAN,3756,New House & Land,4,2,2,400.0,"$654,794",654794.0,-37.406693,144.97983,https://www.domain.com.au/lot-2246-wallara-waters-estate-wallan-vic-3756-2020474074,2026-03-09
2020474075,"LOT 2224 Wallara Waters Estate, WALLAN VIC 3756",WALLAN,3756,New House & Land,4,2,2,448.0,"$658,309",658309.0,-37.406693,144.97983,https://www.domain.com.au/lot-2224-wallara-waters-estate-wallan-vic-3756-2020474075,2026-03-09
2020474076,"LOT 2239 Wallara Waters Estate, WALLAN VIC 3756",WALLAN,3756,New House & Land,4,2,2,448.0,"$663,085",663085.0,-37.406693,144.97983,https://www.domain.com.au/lot-2239-wallara-waters-estate-wallan-vic-3756-2020474076,2026-03-09
2020474077,"LOT 2247 Wallara Waters Estate, WALLAN VIC 3756",WALLAN,3756,New House & Land,4,2,2,448.0,"$676,777",676777.0,-37.406693,144.97983,https://www.domain.com.au/lot-2247-wallara-waters-estate-wallan-vic-3756-2020474077,2026-03-09
2020474529,"7 Synod Drive,, BEVERIDGE VIC 3753",BEVERIDGE,3753,House,4,2,2,0.0,Contact Agent,,-37.471752,144.99051,https://www.domain.com.au/7-synod-drive-beveridge-vic-3753-2020474529,2026-03-09
2020481061,", WALLAN VIC 3756",WALLAN,3756,Vacant land,0,0,0,475.0,"ESR : $319,000 - $349,000",334000.0,-37.406693,144.97983,https://www.domain.com.au/wallan-vic-3756-2020481061,2026-03-09
2020483699,"49 Sequoia Drive, KALKALLO VIC 3064",KALKALLO,3064,Vacant land,0,0,0,448.0,"$440,000-$480,000",460000.0,-37.530144,144.95898,https://www.domain.com.au/49-sequoia-drive-kalkallo-vic-3064-2020483699,2026-03-09
2020487179,"Lot 60736 Inkap Street, Cloverton, BEVERIDGE VIC 3753",BEVERIDGE,3753,Townhouse,3,2,2,0.0,"$539,950",539950.0,-37.47374,144.97458,https://www.domain.com.au/lot-60736-inkap-street-cloverton-beveridge-vic-3753-2020487179,2026-03-09
2020487180,"Lot 60733 Inkap Street, Cloverton, BEVERIDGE VIC 3753",BEVERIDGE,3753,Townhouse,3,2,2,0.0,"$539,950",539950.0,-37.47374,144.97458,https://www.domain.com.au/lot-60733-inkap-street-cloverton-beveridge-vic-3753-2020487180,2026-03-09
2020488369,"Lot 60734 Inkap Street, BEVERIDGE VIC 3753",BEVERIDGE,3753,Townhouse,3,2,2,0.0,"$539,950",539950.0,-37.47374,144.97458,https://www.domain.com.au/lot-60734-inkap-street-beveridge-vic-3753-2020488369,2026-03-09
2020488370,"Lot 60732 Inkap Street, BEVERIDGE VIC 3753",BEVERIDGE,3753,Townhouse,3,2,2,0.0,"$589,950",589950.0,-37.47374,144.97458,https://www.domain.com.au/lot-60732-inkap-street-beveridge-vic-3753-2020488370,2026-03-09
2020488440,"Lot 60735 Inkap Street, BEVERIDGE VIC 3753",BEVERIDGE,3753,Townhouse,3,2,2,0.0,"$539,950",539950.0,-37.47374,144.97458,https://www.domain.com.au/lot-60735-inkap-street-beveridge-vic-3753-2020488440,2026-03-09
2020459219,"2225 Ballad Rise, WALLAN VIC 3756",WALLAN,3756,New House & Land,4,3,2,400.0,"$793,700",793700.0,-37.406693,144.97983,https://www.domain.com.au/2225-ballad-rise-wallan-vic-3756-2020459219,2026-03-09
2020459220,"2205 Wallara Waters Boulevard, WALLAN VIC 3756",WALLAN,3756,New House & Land,4,2,2,400.0,"$657,700",657700.0,-37.424873,144.99448,https://www.domain.com.au/2205-wallara-waters-boulevard-wallan-vic-3756-2020459220,2026-03-09
2020459221,"2214 Wallara Waters Boulevard, WALLAN VIC 3756",WALLAN,3756,New House & Land,5,2,2,535.0,"$697,300",697300.0,-37.424873,144.99448,https://www.domain.com.au/2214-wallara-waters-boulevard-wallan-vic-3756-2020459221,2026-03-09
2020459222,"2229 Ballad Rise, WALLAN VIC 3756",WALLAN,3756,New House & Land,4,2,2,400.0,"$661,900",661900.0,-37.406693,144.97983,https://www.domain.com.au/2229-ballad-rise-wallan-vic-3756-2020459222,2026-03-09
2020459223,"2232 Ballad Rise, WALLAN VIC 3756",WALLAN,3756,New House & Land,4,2,2,512.0,"$772,600",772600.0,-37.406693,144.97983,https://www.domain.com.au/2232-ballad-rise-wallan-vic-3756-2020459223,2026-03-09
2020459224,"2224 Ballad Rise, WALLAN VIC 3756",WALLAN,3756,New House & Land,4,3,2,448.0,"$822,900",822900.0,-37.406693,144.97983,https://www.domain.com.au/2224-ballad-rise-wallan-vic-3756-2020459224,2026-03-09
2020459225,"2226 Ballad Rise, WALLAN VIC 3756",WALLAN,3756,New House & Land,4,2,2,400.0,"$675,400",675400.0,-37.406693,144.97983,https://www.domain.com.au/2226-ballad-rise-wallan-vic-3756-2020459225,2026-03-09
2020459365,"3 Dingo Road, BEVERIDGE VIC 3753",BEVERIDGE,3753,House,3,3,1,352.0,"Asking: $619,950",619950.0,-37.478004,144.96278,https://www.domain.com.au/3-dingo-road-beveridge-vic-3753-2020459365,2026-03-09
2020459663,"138 Roulston Way, WALLAN VIC 3756",WALLAN,3756,Vacant land,0,0,0,626.0,"$320,000 to $350,000",335000.0,-37.40396,144.96072,https://www.domain.com.au/138-roulston-way-wallan-vic-3756-2020459663,2026-03-09
2020461526,"LOT 521 Timbarra Estate, BEVERIDGE VIC 3753",BEVERIDGE,3753,New House & Land,4,2,2,406.0,"$636,900",636900.0,-37.470947,144.96579,https://www.domain.com.au/lot-521-timbarra-estate-beveridge-vic-3753-2020461526,2026-03-09
2020463085,"LOT 418 ALKYRA ESTATE, BEVERIDGE VIC 3753",BEVERIDGE,3753,New House & Land,4,2,2,389.0,"$601,306",601306.0,-37.47121,144.96501,https://www.domain.com.au/lot-418-alkyra-estate-beveridge-vic-3753-2020463085,2026-03-09
2020463106,"LOT 425 ALKYRA ESTATE, BEVERIDGE VIC 3753",BEVERIDGE,3753,New House & Land,4,2,2,413.0,"$599,857",599857.0,-37.47121,144.96501,https://www.domain.com.au/lot-425-alkyra-estate-beveridge-vic-3753-2020463106,2026-03-09
2020463107,"24 Fayalite Circuit, DONNYBROOK VIC 3064",DONNYBROOK,3064,House,5,2,2,512.0,"Asking $1,039,950",1039950.0,-37.52975,144.99565,https://www.domain.com.au/24-fayalite-circuit-donnybrook-vic-3064-2020463107,2026-03-09
2020463739,"Lot 438 Alkyra Estate, BEVERIDGE VIC 3753",BEVERIDGE,3753,New House & Land,4,2,2,418.0,"$597,418",597418.0,-37.47121,144.96501,https://www.domain.com.au/lot-438-alkyra-estate-beveridge-vic-3753-2020463739,2026-03-09
2020463867,"Lot 5212 Ambient Crescent, BEVERIDGE VIC 3753",BEVERIDGE,3753,New House & Land,4,2,2,415.0,"$650,230",650230.0,-37.46801,144.94572,https://www.domain.com.au/lot-5212-ambient-crescent-beveridge-vic-3753-2020463867,2026-03-09
2020464032,"5714 Kooyongkoot Drive, MICKLEHAM VIC 3064",MICKLEHAM,3064,New House & Land,4,2,2,263.0,"$609,328",609328.0,-37.52181,144.90015,https://www.domain.com.au/5714-kooyongkoot-drive-mickleham-vic-3064-2020464032,2026-03-09
2020464110,"2903 Igneous Way, DONNYBROOK VIC 3064",DONNYBROOK,3064,New House & Land,5,2,2,448.0,"$881,400",881400.0,-37.52918,144.99655,https://www.domain.com.au/2903-igneous-way-donnybrook-vic-3064-2020464110,2026-03-09
2020472205,"Lot 425 raven Circuit (Alkyra ), BEVERIDGE VIC 3753",BEVERIDGE,3753,New House & Land,4,2,2,413.0,"$594,866",594866.0,-37.47121,144.96501,https://www.domain.com.au/lot-425-raven-circuit-alkyra-beveridge-vic-3753-2020472205,2026-03-09
2020472222,"Lot 420 Raven Circuit (Alkyra), BEVERIDGE VIC 3753",BEVERIDGE,3753,New House & Land,4,2,2,420.0,"$628,630",628630.0,-37.47121,144.96501,https://www.domain.com.au/lot-420-raven-circuit-alkyra-beveridge-vic-3753-2020472222,2026-03-09
2020472248,"Lot 409 Raven Circuit (Alkyra), BEVERIDGE VIC 3753",BEVERIDGE,3753,New House & Land,4,2,2,406.0,"$589,417",589417.0,-37.47121,144.96501,https://www.domain.com.au/lot-409-raven-circuit-alkyra-beveridge-vic-3753-2020472248,2026-03-09
2020423115,"Lot 37338 Bloodwood Street, KALKALLO VIC 3064",KALKALLO,3064,New House & Land,4,2,2,512.0,"$787,829",787829.0,-37.51617,144.95886,https://www.domain.com.au/lot-37338-bloodwood-street-kalkallo-vic-3064-2020423115,2026-03-09
2020423117,"Lot 37817 Jump Street, KALKALLO VIC 3064",KALKALLO,3064,New House & Land,4,2,2,448.0,"$727,532",727532.0,-37.529438,144.95955,https://www.domain.com.au/lot-37817-jump-street-kalkallo-vic-3064-2020423117,2026-03-09
2020423126,"Lot 61586 Flock Road, KALKALLO VIC 3064",KALKALLO,3064,New House & Land,3,2,2,313.0,"$607,730",607730.0,-37.529438,144.95955,https://www.domain.com.au/lot-61586-flock-road-kalkallo-vic-3064-2020423126,2026-03-09
2020423132,"Lot 34420 Werriberri Street, KALKALLO VIC 3064",KALKALLO,3064,New House & Land,4,2,2,392.0,"$693,250",693250.0,-37.52707,144.96985,https://www.domain.com.au/lot-34420-werriberri-street-kalkallo-vic-3064-2020423132,2026-03-09
2020426339,"Lot: 2206, Wallara Waters Boulevard, WALLAN VIC 3756",WALLAN,3756,New House & Land,4,2,2,400.0,"$662,888",662888.0,-37.406693,144.97983,https://www.domain.com.au/lot-2206-wallara-waters-boulevard-wallan-vic-3756-2020426339,2026-03-09
2020426340,"Lot: 1312, Basil Drive, WALLAN VIC 3756",WALLAN,3756,New House & Land,4,2,2,400.0,"$644,888",644888.0,-37.406693,144.97983,https://www.domain.com.au/lot-1312-basil-drive-wallan-vic-3756-2020426340,2026-03-09
2020426341,"Lot: 1302, Basil Drive, WALLAN VIC 3756",WALLAN,3756,New House & Land,4,2,2,350.0,"$619,888",619888.0,-37.406693,144.97983,https://www.domain.com.au/lot-1302-basil-drive-wallan-vic-3756-2020426341,2026-03-09
2020426342,"Lot: 1102, Daisy Lane, WALLAN VIC 3756",WALLAN,3756,New House & Land,4,2,1,300.0,"$553,720",553720.0,-37.406693,144.97983,https://www.domain.com.au/lot-1102-daisy-lane-wallan-vic-3756-2020426342,2026-03-09
2020426365,"Lot: 2207, Wallara Waters Boulevard, WALLAN VIC 3756",WALLAN,3756,New House & Land,4,2,2,448.0,"$625,964",625964.0,-37.406693,144.97983,https://www.domain.com.au/lot-2207-wallara-waters-boulevard-wallan-vic-3756-2020426365,2026-03-09
2020426366,"Lot: 1102, Daisy Lane, WALLAN VIC 3756",WALLAN,3756,New House & Land,3,1,1,300.0,"$531,517",531517.0,-37.406693,144.97983,https://www.domain.com.au/lot-1102-daisy-lane-wallan-vic-3756-2020426366,2026-03-09
2020427191,"2247 Wallara Waters Boulevard, WALLAN VIC 3756",WALLAN,3756,New House & Land,5,3,2,448.0,"$839,905",839905.0,-37.424873,144.99448,https://www.domain.com.au/2247-wallara-waters-boulevard-wallan-vic-3756-2020427191,2026-03-09
2020431820,"636 Redwood Crescent, BEVERIDGE VIC 3753",BEVERIDGE,3753,New House & Land,4,2,2,305.0,"$542,328",542328.0,-37.47374,144.97458,https://www.domain.com.au/636-redwood-crescent-beveridge-vic-3753-2020431820,2026-03-09
2020444518,"Lot 5205 Mandalay Living Estate, BEVERIDGE VIC 3753",BEVERIDGE,3753,New House & Land,4,2,2,392.0,"$668,692",668692.0,-37.47136,144.95264,https://www.domain.com.au/lot-5205-mandalay-living-estate-beveridge-vic-3753-2020444518,2026-03-09
2020449173,"50 Balmain Road, MICKLEHAM VIC 3064",MICKLEHAM,3064,House,4,2,4,576.0,Contact Agent,,-37.53218,144.90395,https://www.domain.com.au/50-balmain-road-mickleham-vic-3064-2020449173,2026-03-09
2020458591,"Lot 32 Constable Street, BEVERIDGE VIC 3753",BEVERIDGE,3753,New House & Land,3,2,1,315.0,"$523,818",523818.0,-37.474648,144.9666,https://www.domain.com.au/lot-32-constable-street-beveridge-vic-3753-2020458591,2026-03-09
2020458671,"417 Raven Circuit, BEVERIDGE VIC 3753",BEVERIDGE,3753,New House & Land,4,2,2,389.0,"$581,830",581830.0,-37.46894,144.96402,https://www.domain.com.au/417-raven-circuit-beveridge-vic-3753-2020458671,2026-03-09
2020458677,"426 Raven Circuit, BEVERIDGE VIC 3753",BEVERIDGE,3753,New House & Land,4,2,2,375.0,"$586,876",586876.0,-37.46894,144.96402,https://www.domain.com.au/426-raven-circuit-beveridge-vic-3753-2020458677,2026-03-09
2020458734,"23 Fountain Drive, BEVERIDGE VIC 3753",BEVERIDGE,3753,House,5,2,2,420.0,"$680,000 - $730,000",705000.0,-37.466484,144.93991,https://www.domain.com.au/23-fountain-drive-beveridge-vic-3753-2020458734,2026-03-09
2020459217,"2206 Wallara Waters Boulevard, WALLAN VIC 3756",WALLAN,3756,New House & Land,4,3,2,400.0,"$758,900",758900.0,-37.424873,144.99448,https://www.domain.com.au/2206-wallara-waters-boulevard-wallan-vic-3756-2020459217,2026-03-09
2020459218,"2228 Ballad Rise, WALLAN VIC 3756",WALLAN,3756,New House & Land,4,2,2,400.0,"$666,900",666900.0,-37.406693,144.97983,https://www.domain.com.au/2228-ballad-rise-wallan-vic-3756-2020459218,2026-03-09
