Property_ID,Full_Address,Suburb,Postcode,Property_Type,Beds,Baths,Car_Spaces,Land_Size_sqm,Raw_Price,Numeric_Price,Latitude,Longitude,URL,Last_Updated
2020113784,"96 Barringo Road, NEW GISBORNE VIC 3438",NEW GISBORNE,3438,Acreage / Semi-Rural,4,2,2,24.28,Contact Agent,,-37.450996,144.60283,https://www.domain.com.au/96-barringo-road-new-gisborne-vic-3438-2020113784,2026-03-09
2020274201,"46 Riverside Drive, RIDDELLS CREEK VIC 3431",RIDDELLS CREEK,3431,Acreage / Semi-Rural,5,3,6,8.09,"$1,980,000 – $2,100,000",2040000.0,-37.445133,144.63565,https://www.domain.com.au/46-riverside-drive-riddells-creek-vic-3431-2020274201,2026-03-09
2020332289,"670 Gap Road, RIDDELLS CREEK VIC 3431",RIDDELLS CREEK,3431,Acreage / Semi-Rural,4,2,6,11.0,"$1,490,000 - $1,590,000",1540000.0,-37.417595,144.6439,https://www.domain.com.au/670-gap-road-riddells-creek-vic-3431-2020332289,2026-03-09
2020352839,"6 Zig Zag Road, MOUNT MACEDON VIC 3441",MOUNT MACEDON,3441,Vacant land,0,0,0,12.14,"$1,950,000",1950000.0,-37.403423,144.60553,https://www.domain.com.au/6-zig-zag-road-mount-macedon-vic-3441-2020352839,2026-03-09
2020594165,"133 Shannons Road, MOUNT MACEDON VIC 3441",MOUNT MACEDON,3441,House,6,3,6,39000.0,"$2,195,000- $2,295,000",2245000.0,-37.418964,144.63191,https://www.domain.com.au/133-shannons-road-mount-macedon-vic-3441-2020594165,2026-03-09
2017665188,", RIDDELLS CREEK VIC 3431",RIDDELLS CREEK,3431,House,3,1,1,50.59,Contact Agent,,-37.452545,144.67532,https://www.domain.com.au/riddells-creek-vic-3431-2017665188,2026-03-09
2020370703,"104 Royal Parade, RIDDELLS CREEK VIC 3431",RIDDELLS CREEK,3431,House,3,2,2,4301.0,"$1,650,000 - $1,800,000",1725000.0,-37.450497,144.66287,https://www.domain.com.au/104-royal-parade-riddells-creek-vic-3431-2020370703,2026-03-09
2020386958,"90 Royal Parade, RIDDELLS CREEK VIC 3431",RIDDELLS CREEK,3431,House,4,3,5,18332.0,PRIVATE INSPECTIONS AVAILABLE UPON REQUEST,,-37.45152,144.66264,https://www.domain.com.au/90-royal-parade-riddells-creek-vic-3431-2020386958,2026-03-09
2020487071,"Lot 1 Mount Charlie Road, RIDDELLS CREEK VIC 3431",RIDDELLS CREEK,3431,Vacant land,0,0,0,133546.0,"$380,000 - $400,000",390000.0,-37.44105,144.70346,https://www.domain.com.au/lot-1-mount-charlie-road-riddells-creek-vic-3431-2020487071,2026-03-09
2020534967,"Lot 112 Prince Alfred Street, RIDDELLS CREEK VIC 3431",RIDDELLS CREEK,3431,Vacant land,0,0,0,8190.0,"$80,000 - $88,000",84000.0,-37.44009,144.65982,https://www.domain.com.au/lot-112-prince-alfred-street-riddells-creek-vic-3431-2020534967,2026-03-09
2020537528,"244 Gap Road, RIDDELLS CREEK VIC 3431",RIDDELLS CREEK,3431,House,4,3,2,8038.0,"$1,700,000 - $1,850,000",1775000.0,-37.441395,144.66518,https://www.domain.com.au/244-gap-road-riddells-creek-vic-3431-2020537528,2026-03-09
2020285048,"417 - 419 Sutherlands Road, RIDDELLS CREEK VIC 3431",RIDDELLS CREEK,3431,Rural,6,2,8,56.66,Contact Agent,,-37.451603,144.72101,https://www.domain.com.au/417-419-sutherlands-road-riddells-creek-vic-3431-2020285048,2026-03-09
2020630824,"285 Mount Eliza Road, RIDDELLS CREEK VIC 3431",RIDDELLS CREEK,3431,House,4,2,2,44.52,"$3,250,000",3250000.0,-37.40444,144.71002,https://www.domain.com.au/285-mount-eliza-road-riddells-creek-vic-3431-2020630824,2026-03-09
2018512237,"428 Bolinda Darraweit road, BOLINDA VIC 3432",BOLINDA,3432,Acreage / Semi-Rural,5,4,4,42.49,Please Contact Agent,,-37.435986,144.79518,https://www.domain.com.au/428-bolinda-darraweit-road-bolinda-vic-3432-2018512237,2026-03-09
2018649405,", BOLINDA VIC 3432",BOLINDA,3432,Vacant land,0,0,0,453247.0,Call before it's SOLD !!,,-37.439438,144.77417,https://www.domain.com.au/bolinda-vic-3432-2018649405,2026-03-09
2019227273,"381 Bolinda-Darraweit Rd, BOLINDA VIC 3432",BOLINDA,3432,House,4,2,5,534185.0,Contact Agent,,-37.434772,144.78998,https://www.domain.com.au/381-bolinda-darraweit-rd-bolinda-vic-3432-2019227273,2026-03-09
2020036972,"463 Bolinda-Darraweit Road, BOLINDA VIC 3432",BOLINDA,3432,Acreage / Semi-Rural,1,1,0,40.06,"$2,500,000 - $2,700,000",2600000.0,-37.43586,144.79893,https://www.domain.com.au/463-bolinda-darraweit-road-bolinda-vic-3432-2020036972,2026-03-09
2019524369,"Lot 2 Kennedys Lane, CHINTIN VIC 3756",CHINTIN,3756,Vacant land,0,0,0,416500.0,"$1,090,000",1090000.0,-37.413807,144.81836,https://www.domain.com.au/lot-2-kennedys-lane-chintin-vic-3756-2019524369,2026-03-09
2019777960,"179 Fairfield Lane, DARRAWEIT GUIM VIC 3756",DARRAWEIT GUIM,3756,Rural,9,4,10,11.13,"$2,050,000 - $2,200,000",2125000.0,-37.405857,144.8853,https://www.domain.com.au/179-fairfield-lane-darraweit-guim-vic-3756-2019777960,2026-03-09
2019984744,"268 Doolins Road, DARRAWEIT GUIM VIC 3756",DARRAWEIT GUIM,3756,House,4,2,6,403100.0,Contact Omar Morsi 0432418089,,-37.45008,144.86917,https://www.domain.com.au/268-doolins-road-darraweit-guim-vic-3756-2019984744,2026-03-09
2020016994,"51 Glendonald Road, DARRAWEIT GUIM VIC 3756",DARRAWEIT GUIM,3756,House,4,3,6,2.02,"$1,850,000 - $1,920,000",1885000.0,-37.40462,144.89021,https://www.domain.com.au/51-glendonald-road-darraweit-guim-vic-3756-2020016994,2026-03-09
2020487840,"268 Doolins Road, DARRAWEIT GUIM VIC 3756",DARRAWEIT GUIM,3756,Acreage / Semi-Rural,4,2,12,40.47,Contact Agent!,,-37.45008,144.86917,https://www.domain.com.au/268-doolins-road-darraweit-guim-vic-3756-2020487840,2026-03-09
2018809916,"2 Windmill Way, WALLAN VIC 3756",WALLAN,3756,Vacant land,0,0,0,435.0,"$339,000",339000.0,-37.42062,144.95937,https://www.domain.com.au/2-windmill-way-wallan-vic-3756-2018809916,2026-03-09
2019041909,"9 Guthrie Court, WALLAN VIC 3756",WALLAN,3756,House,3,2,0,10117.0,ON HOLD,,-37.40901,144.96797,https://www.domain.com.au/9-guthrie-court-wallan-vic-3756-2019041909,2026-03-09
2019149421,"56 Botanical Avenue, WALLAN VIC 3756",WALLAN,3756,House,4,2,2,420.0,"$550,000-$605,000",577500.0,-37.41851,144.96107,https://www.domain.com.au/56-botanical-avenue-wallan-vic-3756-2019149421,2026-03-09
2019843587,"11 Poa Place, WALLAN VIC 3756",WALLAN,3756,Vacant land,0,0,0,771.0,Price on Application,,-37.400925,144.96289,https://www.domain.com.au/11-poa-place-wallan-vic-3756-2019843587,2026-03-09
2020175095,"20 Falcon St, WALLAN VIC 3756",WALLAN,3756,House,5,4,2,0.0,Taking Offers Now !!,,-37.40548,144.9623,https://www.domain.com.au/20-falcon-st-wallan-vic-3756-2020175095,2026-03-09
2020311681,"250 Stockdale Road, WALLAN VIC 3756",WALLAN,3756,Vacant land,0,0,0,25.09,Private Sale | Contact Agent,,-37.419033,144.92282,https://www.domain.com.au/250-stockdale-road-wallan-vic-3756-2020311681,2026-03-09
2020459663,"138 Roulston Way, WALLAN VIC 3756",WALLAN,3756,Vacant land,0,0,0,626.0,"$320,000 to $350,000",335000.0,-37.40396,144.96072,https://www.domain.com.au/138-roulston-way-wallan-vic-3756-2020459663,2026-03-09
2020472665,"31 Stringybark Avenue, WALLAN VIC 3756",WALLAN,3756,House,4,2,2,0.0,$640k- $680k,,-37.417828,144.96448,https://www.domain.com.au/31-stringybark-avenue-wallan-vic-3756-2020472665,2026-03-09
2020499511,"14 Dahlia, WALLAN VIC 3756",WALLAN,3756,House,3,2,2,375.0,"$570,000-$595,000",582500.0,-37.418133,144.96457,https://www.domain.com.au/14-dahlia-wallan-vic-3756-2020499511,2026-03-09
2020518454,"25 Appleberry Way, WALLAN VIC 3756",WALLAN,3756,House,3,2,2,0.0,Call Before it's SOLD !!,,-37.419735,144.96144,https://www.domain.com.au/25-appleberry-way-wallan-vic-3756-2020518454,2026-03-09
2020529134,"5 Firetail Avenue, WALLAN VIC 3756",WALLAN,3756,House,4,2,2,436.0,"$580,000 - $620,000",600000.0,-37.415825,144.96892,https://www.domain.com.au/5-firetail-avenue-wallan-vic-3756-2020529134,2026-03-09
2020532847,"8 King Street, WALLAN VIC 3756",WALLAN,3756,House,3,2,3,1.44,"$2,460,000 - $2,580,000",2520000.0,-37.408092,144.97115,https://www.domain.com.au/8-king-street-wallan-vic-3756-2020532847,2026-03-09
2020533994,"10 Lantern Court, WALLAN VIC 3756",WALLAN,3756,House,3,2,2,687.0,"$600,000 - $660,000",630000.0,-37.407974,144.96974,https://www.domain.com.au/10-lantern-court-wallan-vic-3756-2020533994,2026-03-09
2020541284,"14 Timothy Court, WALLAN VIC 3756",WALLAN,3756,House,3,2,1,352.0,"$485,000 - $520,000",502500.0,-37.413242,144.97185,https://www.domain.com.au/14-timothy-court-wallan-vic-3756-2020541284,2026-03-09
2020577185,"42 Riceflower Rise, WALLAN VIC 3756",WALLAN,3756,House,4,2,2,463.0,"$590,000-$620,000",605000.0,-37.417027,144.96118,https://www.domain.com.au/42-riceflower-rise-wallan-vic-3756-2020577185,2026-03-09
2020605348,"Lot 1045 Lily Dr, WALLAN VIC 3756",WALLAN,3756,New House & Land,4,2,2,654.0,"$790,855",790855.0,-37.40038,144.97043,https://www.domain.com.au/lot-1045-lily-dr-wallan-vic-3756-2020605348,2026-03-09
2020627064,"2 Thomas Place, WALLAN VIC 3756",WALLAN,3756,House,5,2,2,748.0,"$690,000 - $750,000",720000.0,-37.41384,144.97224,https://www.domain.com.au/2-thomas-place-wallan-vic-3756-2020627064,2026-03-09
2020638248,"1 Stringybark Avenue, WALLAN VIC 3756",WALLAN,3756,House,4,2,2,509.0,"$600,000 - $660,000",630000.0,-37.41821,144.9678,https://www.domain.com.au/1-stringybark-avenue-wallan-vic-3756-2020638248,2026-03-09
2020646845,"14 Australis Drive, WALLAN VIC 3756",WALLAN,3756,House,4,2,2,739.0,"$630,000 - $660,000",645000.0,-37.40016,144.97183,https://www.domain.com.au/14-australis-drive-wallan-vic-3756-2020646845,2026-03-09
2020661750,"26 Acacia Way, WALLAN VIC 3756",WALLAN,3756,Vacant land,0,0,0,849.0,Contact Agent,,-37.402325,144.96219,https://www.domain.com.au/26-acacia-way-wallan-vic-3756-2020661750,2026-03-09
2015545108,", WALLAN VIC 3756",WALLAN,3756,New House & Land,4,2,2,554.0,Price Upon Application,,-37.408134,144.9639,https://www.domain.com.au/wallan-vic-3756-2015545108,2026-03-09
2017837574,"11 Spotted Harrier Street, WALLAN VIC 3756",WALLAN,3756,Vacant land,0,0,0,339.0,"$300,000 - $310,000",305000.0,-37.406834,144.96191,https://www.domain.com.au/11-spotted-harrier-street-wallan-vic-3756-2017837574,2026-03-09
2019250718,"11 Teatree Lane, WALLAN VIC 3756",WALLAN,3756,House,4,2,2,512.0,"$720,000-$760,000",740000.0,-37.42063,144.96301,https://www.domain.com.au/11-teatree-lane-wallan-vic-3756-2019250718,2026-03-09
2019433533,"15 Lily Drive, WALLAN VIC 3756",WALLAN,3756,Vacant land,0,0,0,630.0,"$350,000-$390,000",370000.0,-37.40022,144.9691,https://www.domain.com.au/15-lily-drive-wallan-vic-3756-2019433533,2026-03-09
2020018218,"13 Almond Avenue, WALLAN VIC 3756",WALLAN,3756,House,4,2,2,817.0,"$660,000 - $680,000",670000.0,-37.420876,144.97107,https://www.domain.com.au/13-almond-avenue-wallan-vic-3756-2020018218,2026-03-09
2020072589,"18 Royal Spoonbill Loop, WALLAN VIC 3756",WALLAN,3756,Vacant land,0,0,0,612.0,"$335,000 to $365,000",350000.0,-37.40758,144.96118,https://www.domain.com.au/18-royal-spoonbill-loop-wallan-vic-3756-2020072589,2026-03-09
2020078463,", WALLAN VIC 3756",WALLAN,3756,Vacant land,0,0,0,560.0,"$345,000 - $375,000",360000.0,-37.40006,144.9678,https://www.domain.com.au/wallan-vic-3756-2020078463,2026-03-09
2020143902,"6 Alpine Drive, WALLAN VIC 3756",WALLAN,3756,Vacant land,0,0,0,1112.0,"$475,000 - $495,000",485000.0,-37.407677,144.96407,https://www.domain.com.au/6-alpine-drive-wallan-vic-3756-2020143902,2026-03-09
2020199195,"5 Lily Drive, WALLAN VIC 3756",WALLAN,3756,Vacant land,0,0,0,630.0,NEST OR INVEST,,-37.400333,144.97005,https://www.domain.com.au/5-lily-drive-wallan-vic-3756-2020199195,2026-03-09
2020283173,"8 King William Drive, WALLAN VIC 3756",WALLAN,3756,House,4,3,12,6549.0,"$1,500,000 - $1,600,000",1550000.0,-37.410473,144.96925,https://www.domain.com.au/8-king-william-drive-wallan-vic-3756-2020283173,2026-03-09
2020369331,"14 Hardhead St, WALLAN VIC 3756",WALLAN,3756,House,4,2,2,488.0,"$650,000 - $670,000",660000.0,-37.406166,144.96204,https://www.domain.com.au/14-hardhead-st-wallan-vic-3756-2020369331,2026-03-09
2020408879,"24 Franklin Close, WALLAN VIC 3756",WALLAN,3756,House,5,2,2,820.0,Spacious Family Retreat with Pool in Prime Wallan,,-37.40326,144.9648,https://www.domain.com.au/24-franklin-close-wallan-vic-3756-2020408879,2026-03-09
2020462843,"11 Lily Drive, WALLAN VIC 3756",WALLAN,3756,Vacant land,0,0,0,630.0,"$400,000 - $420,000",410000.0,-37.400265,144.96948,https://www.domain.com.au/11-lily-drive-wallan-vic-3756-2020462843,2026-03-09
2020165610,"Lot 34 King St, WALLAN VIC 3756",WALLAN,3756,New House & Land,4,2,2,453.0,"$653,550",653550.0,-37.411144,144.99063,https://www.domain.com.au/lot-34-king-st-wallan-vic-3756-2020165610,2026-03-09
2020165613,"Lot 9 Raimeno Rd, WALLAN VIC 3756",WALLAN,3756,New House & Land,4,2,2,431.0,"$663,590",663590.0,-37.411934,144.99083,https://www.domain.com.au/lot-9-raimeno-rd-wallan-vic-3756-2020165613,2026-03-09
2020165615,"Lot 36 King St, WALLAN VIC 3756",WALLAN,3756,New House & Land,4,2,2,450.0,"$664,705",664705.0,-37.411125,144.99046,https://www.domain.com.au/lot-36-king-st-wallan-vic-3756-2020165615,2026-03-09
2020165616,"Lot 12 Raimeno Rd, WALLAN VIC 3756",WALLAN,3756,New House & Land,3,2,2,427.0,"$629,580",629580.0,-37.412186,144.99078,https://www.domain.com.au/lot-12-raimeno-rd-wallan-vic-3756-2020165616,2026-03-09
2020195900,"84-106 William Street, WALLAN VIC 3756",WALLAN,3756,House,7,5,10,169967.0,THE DEAL: $7M - $7.7M,,-37.408207,144.9948,https://www.domain.com.au/84-106-william-street-wallan-vic-3756-2020195900,2026-03-09
2020544291,"360 Simon Hill Road, WALLAN VIC 3756",WALLAN,3756,Rural,3,2,1,31.89,"$1,400,000",1400000.0,-37.406693,144.97983,https://www.domain.com.au/360-simon-hill-road-wallan-vic-3756-2020544291,2026-03-09
2020574859,"8 Ram Circuit, WALLAN VIC 3756",WALLAN,3756,House,4,2,2,353.0,"$620,000 - $680,000",650000.0,-37.432175,144.99261,https://www.domain.com.au/8-ram-circuit-wallan-vic-3756-2020574859,2026-03-09
2020589904,"2214 Wallara Waters Boulevard, WALLAN VIC 3756",WALLAN,3756,New House & Land,4,2,2,535.0,"$615,920",615920.0,-37.424873,144.99448,https://www.domain.com.au/2214-wallara-waters-boulevard-wallan-vic-3756-2020589904,2026-03-09
2020591660,"22 Elisha Court, WALLAN VIC 3756",WALLAN,3756,New House & Land,3,2,2,586.0,"$670,275",670275.0,-37.412357,144.98863,https://www.domain.com.au/22-elisha-court-wallan-vic-3756-2020591660,2026-03-09
2020593436,"17 Ficus Circuit, WALLAN VIC 3756",WALLAN,3756,House,4,2,2,392.0,"ESR: $590,000 - $620,000",605000.0,-37.428345,144.99591,https://www.domain.com.au/17-ficus-circuit-wallan-vic-3756-2020593436,2026-03-09
2020603936,"Lot 418 Curlew Drive, WALLAN VIC 3756",WALLAN,3756,New Home Designs,4,2,2,0.0,"$647,685",647685.0,-37.406693,144.97983,https://www.domain.com.au/lot-418-curlew-drive-wallan-vic-3756-2020603936,2026-03-09
2020603937,"Lot 417 Curlew Drive, WALLAN VIC 3756",WALLAN,3756,New Home Designs,4,2,2,0.0,"$615,295",615295.0,-37.406693,144.97983,https://www.domain.com.au/lot-417-curlew-drive-wallan-vic-3756-2020603937,2026-03-09
2020605713,"2232 Macsfield Road, WALLAN VIC 3756",WALLAN,3756,New House & Land,4,2,2,512.0,"$690,702",690702.0,-37.434803,144.9806,https://www.domain.com.au/2232-macsfield-road-wallan-vic-3756-2020605713,2026-03-09
2020605717,"2232 Macsfield Road, WALLAN VIC 3756",WALLAN,3756,New House & Land,4,2,2,512.0,"$815,180",815180.0,-37.434803,144.9806,https://www.domain.com.au/2232-macsfield-road-wallan-vic-3756-2020605717,2026-03-09
2020625330,"124 Newbridge Boulevard, WALLAN VIC 3756",WALLAN,3756,Vacant land,0,0,0,416.0,Contact Agent,,-37.43108,144.99837,https://www.domain.com.au/124-newbridge-boulevard-wallan-vic-3756-2020625330,2026-03-09
2020643368,", WALLAN VIC 3756",WALLAN,3756,House,4,2,2,420.0,"$991,000",991000.0,-37.406693,144.97983,https://www.domain.com.au/wallan-vic-3756-2020643368,2026-03-09
2020643661,"Lot 2229 Macsfield Rd, WALLAN VIC 3756",WALLAN,3756,New House & Land,4,2,2,400.0,"$604,427",604427.0,-37.434803,144.9806,https://www.domain.com.au/lot-2229-macsfield-rd-wallan-vic-3756-2020643661,2026-03-09
2020661179,"LOT 2205 WALLARA WATERS, WALLAN VIC 3756",WALLAN,3756,New House & Land,4,2,2,400.0,"$635,350",635350.0,-37.424873,144.99448,https://www.domain.com.au/lot-2205-wallara-waters-wallan-vic-3756-2020661179,2026-03-09
2020661190,"LOT 2206 WALLARA WATERS, WALLAN VIC 3756",WALLAN,3756,New House & Land,4,2,2,400.0,"$654,893",654893.0,-37.424873,144.99448,https://www.domain.com.au/lot-2206-wallara-waters-wallan-vic-3756-2020661190,2026-03-09
2020663084,", WALLAN VIC 3756",WALLAN,3756,House,4,0,0,400.0,"$675,050",675050.0,-37.406693,144.97983,https://www.domain.com.au/wallan-vic-3756-2020663084,2026-03-09
2020165164,"Lot 3 Raimeno Rd, WALLAN VIC 3756",WALLAN,3756,New House & Land,4,2,2,425.0,"$644,480",644480.0,-37.411434,144.99092,https://www.domain.com.au/lot-3-raimeno-rd-wallan-vic-3756-2020165164,2026-03-09
2020165165,"Lot 1 King St, WALLAN VIC 3756",WALLAN,3756,New House & Land,3,2,2,457.0,"$636,375",636375.0,-37.41109,144.99138,https://www.domain.com.au/lot-1-king-st-wallan-vic-3756-2020165165,2026-03-09
2020165465,"Lot 6 Raimeno Rd, WALLAN VIC 3756",WALLAN,3756,New House & Land,4,2,2,428.0,"$659,705",659705.0,-37.411686,144.99088,https://www.domain.com.au/lot-6-raimeno-rd-wallan-vic-3756-2020165465,2026-03-09
2020165603,"Lot 7 Raimeno Rd, WALLAN VIC 3756",WALLAN,3756,New House & Land,3,2,2,429.0,"$643,510",643510.0,-37.411808,144.99086,https://www.domain.com.au/lot-7-raimeno-rd-wallan-vic-3756-2020165603,2026-03-09
2020474075,"LOT 2224 Wallara Waters Estate, WALLAN VIC 3756",WALLAN,3756,New House & Land,4,2,2,448.0,"$658,309",658309.0,-37.406693,144.97983,https://www.domain.com.au/lot-2224-wallara-waters-estate-wallan-vic-3756-2020474075,2026-03-09
2020474076,"LOT 2239 Wallara Waters Estate, WALLAN VIC 3756",WALLAN,3756,New House & Land,4,2,2,448.0,"$663,085",663085.0,-37.406693,144.97983,https://www.domain.com.au/lot-2239-wallara-waters-estate-wallan-vic-3756-2020474076,2026-03-09
2020474077,"LOT 2247 Wallara Waters Estate, WALLAN VIC 3756",WALLAN,3756,New House & Land,4,2,2,448.0,"$676,777",676777.0,-37.406693,144.97983,https://www.domain.com.au/lot-2247-wallara-waters-estate-wallan-vic-3756-2020474077,2026-03-09
2020481061,", WALLAN VIC 3756",WALLAN,3756,Vacant land,0,0,0,475.0,"ESR : $319,000 - $349,000",334000.0,-37.406693,144.97983,https://www.domain.com.au/wallan-vic-3756-2020481061,2026-03-09
2020500882,"2A Vallence Court, WALLAN VIC 3756",WALLAN,3756,Apartment / Unit / Flat,2,1,2,0.0,Contact Agent,,-37.415443,144.98842,https://www.domain.com.au/2a-vallence-court-wallan-vic-3756-2020500882,2026-03-09
2020507619,"Wallara Waters Boulevard, WALLAN VIC 3756",WALLAN,3756,Vacant land,0,0,0,400.0,"$345,000 - $25k off bonus* for a limited time",345000.0,-37.424873,144.99448,https://www.domain.com.au/wallara-waters-boulevard-wallan-vic-3756-2020507619,2026-03-09
2020507629,"Wallara Waters Boulevard, WALLAN VIC 3756",WALLAN,3756,Vacant land,0,0,0,535.0,"$365,000 - $25k off bonus* for a limited time",365000.0,-37.424873,144.99448,https://www.domain.com.au/wallara-waters-boulevard-wallan-vic-3756-2020507629,2026-03-09
2020507685,"2232 Macsfield Road, WALLAN VIC 3756",WALLAN,3756,Vacant land,0,0,0,512.0,"$395,000",395000.0,-37.434803,144.9806,https://www.domain.com.au/2232-macsfield-road-wallan-vic-3756-2020507685,2026-03-09
2020507697,"Wallara Waters Boulevard, WALLAN VIC 3756",WALLAN,3756,Vacant land,0,0,0,448.0,"$360,000 - $25k off bonus* for a limited time",360000.0,-37.424873,144.99448,https://www.domain.com.au/wallara-waters-boulevard-wallan-vic-3756-2020507697,2026-03-09
2020507713,"Wallara Waters Boulevard, WALLAN VIC 3756",WALLAN,3756,Vacant land,0,0,0,400.0,"$345,000 - $25k off bonus* for a limited time",345000.0,-37.424873,144.99448,https://www.domain.com.au/wallara-waters-boulevard-wallan-vic-3756-2020507713,2026-03-09
2020507721,"Wallara Waters Boulevard, WALLAN VIC 3756",WALLAN,3756,Vacant land,0,0,0,448.0,"$360,000 - $25k off bonus* for a limited time",360000.0,-37.424873,144.99448,https://www.domain.com.au/wallara-waters-boulevard-wallan-vic-3756-2020507721,2026-03-09
2020508854,"13 Princes Circuit, WALLAN VIC 3756",WALLAN,3756,House,4,2,1,336.0,"$540,000-$585,000",562500.0,-37.422695,144.99564,https://www.domain.com.au/13-princes-circuit-wallan-vic-3756-2020508854,2026-03-09
2020532842,"King Street, WALLAN VIC 3756",WALLAN,3756,Vacant land,0,0,0,1.44,"$2,460,000 - $2,580,000",2520000.0,-37.409973,144.98122,https://www.domain.com.au/king-street-wallan-vic-3756-2020532842,2026-03-09
2020547600,"Lot 1518 Wallara Waters, WALLAN VIC 3756",WALLAN,3756,New House & Land,4,2,2,512.0,"$708,553",708553.0,-37.424873,144.99448,https://www.domain.com.au/lot-1518-wallara-waters-wallan-vic-3756-2020547600,2026-03-09
2020547603,"Lot 1518 Wallara Waters, WALLAN VIC 3756",WALLAN,3756,New House & Land,4,2,2,512.0,"$676,829",676829.0,-37.424873,144.99448,https://www.domain.com.au/lot-1518-wallara-waters-wallan-vic-3756-2020547603,2026-03-09
2020547605,"Lot 1518 Wallara Water, WALLAN VIC 3756",WALLAN,3756,New House & Land,4,2,2,512.0,"$682,367",682367.0,-37.406693,144.97983,https://www.domain.com.au/lot-1518-wallara-water-wallan-vic-3756-2020547605,2026-03-09
2020426342,"Lot: 1102, Daisy Lane, WALLAN VIC 3756",WALLAN,3756,New House & Land,4,2,1,300.0,"$553,720",553720.0,-37.406693,144.97983,https://www.domain.com.au/lot-1102-daisy-lane-wallan-vic-3756-2020426342,2026-03-09
2020426365,"Lot: 2207, Wallara Waters Boulevard, WALLAN VIC 3756",WALLAN,3756,New House & Land,4,2,2,448.0,"$625,964",625964.0,-37.406693,144.97983,https://www.domain.com.au/lot-2207-wallara-waters-boulevard-wallan-vic-3756-2020426365,2026-03-09
2020426366,"Lot: 1102, Daisy Lane, WALLAN VIC 3756",WALLAN,3756,New House & Land,3,1,1,300.0,"$531,517",531517.0,-37.406693,144.97983,https://www.domain.com.au/lot-1102-daisy-lane-wallan-vic-3756-2020426366,2026-03-09
2020427191,"2247 Wallara Waters Boulevard, WALLAN VIC 3756",WALLAN,3756,New House & Land,5,3,2,448.0,"$839,905",839905.0,-37.424873,144.99448,https://www.domain.com.au/2247-wallara-waters-boulevard-wallan-vic-3756-2020427191,2026-03-09
2020459217,"2206 Wallara Waters Boulevard, WALLAN VIC 3756",WALLAN,3756,New House & Land,4,3,2,400.0,"$758,900",758900.0,-37.424873,144.99448,https://www.domain.com.au/2206-wallara-waters-boulevard-wallan-vic-3756-2020459217,2026-03-09
2020459218,"2228 Ballad Rise, WALLAN VIC 3756",WALLAN,3756,New House & Land,4,2,2,400.0,"$666,900",666900.0,-37.406693,144.97983,https://www.domain.com.au/2228-ballad-rise-wallan-vic-3756-2020459218,2026-03-09
2020459219,"2225 Ballad Rise, WALLAN VIC 3756",WALLAN,3756,New House & Land,4,3,2,400.0,"$793,700",793700.0,-37.406693,144.97983,https://www.domain.com.au/2225-ballad-rise-wallan-vic-3756-2020459219,2026-03-09
2020459220,"2205 Wallara Waters Boulevard, WALLAN VIC 3756",WALLAN,3756,New House & Land,4,2,2,400.0,"$657,700",657700.0,-37.424873,144.99448,https://www.domain.com.au/2205-wallara-waters-boulevard-wallan-vic-3756-2020459220,2026-03-09
2020459221,"2214 Wallara Waters Boulevard, WALLAN VIC 3756",WALLAN,3756,New House & Land,5,2,2,535.0,"$697,300",697300.0,-37.424873,144.99448,https://www.domain.com.au/2214-wallara-waters-boulevard-wallan-vic-3756-2020459221,2026-03-09
2020459222,"2229 Ballad Rise, WALLAN VIC 3756",WALLAN,3756,New House & Land,4,2,2,400.0,"$661,900",661900.0,-37.406693,144.97983,https://www.domain.com.au/2229-ballad-rise-wallan-vic-3756-2020459222,2026-03-09
2020459223,"2232 Ballad Rise, WALLAN VIC 3756",WALLAN,3756,New House & Land,4,2,2,512.0,"$772,600",772600.0,-37.406693,144.97983,https://www.domain.com.au/2232-ballad-rise-wallan-vic-3756-2020459223,2026-03-09
2020459224,"2224 Ballad Rise, WALLAN VIC 3756",WALLAN,3756,New House & Land,4,3,2,448.0,"$822,900",822900.0,-37.406693,144.97983,https://www.domain.com.au/2224-ballad-rise-wallan-vic-3756-2020459224,2026-03-09
2020459225,"2226 Ballad Rise, WALLAN VIC 3756",WALLAN,3756,New House & Land,4,2,2,400.0,"$675,400",675400.0,-37.406693,144.97983,https://www.domain.com.au/2226-ballad-rise-wallan-vic-3756-2020459225,2026-03-09
2020474052,"LOT 2205 Wallara Waters Estate, WALLAN VIC 3756",WALLAN,3756,New House & Land,4,2,2,400.0,"$610,407",610407.0,-37.406693,144.97983,https://www.domain.com.au/lot-2205-wallara-waters-estate-wallan-vic-3756-2020474052,2026-03-09
2020474059,"LOT 2206 Wallara Waters Estate, WALLAN VIC 3756",WALLAN,3756,New House & Land,4,2,2,400.0,"$612,856",612856.0,-37.406693,144.97983,https://www.domain.com.au/lot-2206-wallara-waters-estate-wallan-vic-3756-2020474059,2026-03-09
2020474061,"LOT 2226 Wallara Waters Estate, WALLAN VIC 3756",WALLAN,3756,New House & Land,4,2,2,400.0,"$626,900",626900.0,-37.406693,144.97983,https://www.domain.com.au/lot-2226-wallara-waters-estate-wallan-vic-3756-2020474061,2026-03-09
2020474063,"LOT 2229 Wallara Waters Estate, WALLAN VIC 3756",WALLAN,3756,New House & Land,4,2,2,400.0,"$631,698",631698.0,-37.406693,144.97983,https://www.domain.com.au/lot-2229-wallara-waters-estate-wallan-vic-3756-2020474063,2026-03-09
2020474071,"LOT 2243 Wallara Waters Estate, WALLAN VIC 3756",WALLAN,3756,New House & Land,4,2,2,400.0,"$647,433",647433.0,-37.406693,144.97983,https://www.domain.com.au/lot-2243-wallara-waters-estate-wallan-vic-3756-2020474071,2026-03-09
2020474073,"LOT 2244 Wallara Waters Estate, WALLAN VIC 3756",WALLAN,3756,New House & Land,4,2,2,400.0,"$652,779",652779.0,-37.406693,144.97983,https://www.domain.com.au/lot-2244-wallara-waters-estate-wallan-vic-3756-2020474073,2026-03-09
2020474074,"LOT 2246 Wallara Waters Estate, WALLAN VIC 3756",WALLAN,3756,New House & Land,4,2,2,400.0,"$654,794",654794.0,-37.406693,144.97983,https://www.domain.com.au/lot-2246-wallara-waters-estate-wallan-vic-3756-2020474074,2026-03-09
2020257153,"Lot 2209 Wallara Waters Boulevard, WALLAN VIC 3756",WALLAN,3756,New House & Land,4,2,2,448.0,"$660,969",660969.0,-37.424873,144.99448,https://www.domain.com.au/lot-2209-wallara-waters-boulevard-wallan-vic-3756-2020257153,2026-03-09
2020257261,"Lot 2230 Ballad Rise, WALLAN VIC 3756",WALLAN,3756,New House & Land,4,2,2,400.0,"$614,668",614668.0,-37.406693,144.97983,https://www.domain.com.au/lot-2230-ballad-rise-wallan-vic-3756-2020257261,2026-03-09
2020257296,"Lot 2233 Climb Road Crn, WALLAN VIC 3756",WALLAN,3756,New House & Land,3,2,2,496.0,"$552,740",552740.0,-37.406693,144.97983,https://www.domain.com.au/lot-2233-climb-road-crn-wallan-vic-3756-2020257296,2026-03-09
2020257314,"Lot 1343 Ram Circuit, WALLAN VIC 3756",WALLAN,3756,New House & Land,4,2,2,486.0,"$636,780",636780.0,-37.432827,144.99257,https://www.domain.com.au/lot-1343-ram-circuit-wallan-vic-3756-2020257314,2026-03-09
2020315608,"2235 Wallara Waters Boulevrd, WALLAN VIC 3756",WALLAN,3756,New House & Land,4,2,2,512.0,"$717,442",717442.0,-37.424873,144.99448,https://www.domain.com.au/2235-wallara-waters-boulevrd-wallan-vic-3756-2020315608,2026-03-09
2020315614,"2205 Wallara Waters Boulevard, WALLAN VIC 3756",WALLAN,3756,New House & Land,4,2,2,4000.0,"$616,866",616866.0,-37.424873,144.99448,https://www.domain.com.au/2205-wallara-waters-boulevard-wallan-vic-3756-2020315614,2026-03-09
2020315615,"2206 Wallara Waters Boulevard, WALLAN VIC 3756",WALLAN,3756,New House & Land,4,2,2,4000.0,"$620,920",620920.0,-37.424873,144.99448,https://www.domain.com.au/2206-wallara-waters-boulevard-wallan-vic-3756-2020315615,2026-03-09
2020315617,"2228 Barton Rise, WALLAN VIC 3756",WALLAN,3756,New House & Land,4,2,2,400.0,"$635,708",635708.0,-37.406693,144.97983,https://www.domain.com.au/2228-barton-rise-wallan-vic-3756-2020315617,2026-03-09
2020319955,"2228 Ballad Rise, WALLAN VIC 3756",WALLAN,3756,New House & Land,4,2,2,400.0,"$595,060",595060.0,-37.406693,144.97983,https://www.domain.com.au/2228-ballad-rise-wallan-vic-3756-2020319955,2026-03-09
2020319969,"2229 Ballad Rise, WALLAN VIC 3756",WALLAN,3756,New House & Land,4,2,2,400.0,"$623,701",623701.0,-37.406693,144.97983,https://www.domain.com.au/2229-ballad-rise-wallan-vic-3756-2020319969,2026-03-09
2020323476,"220 Wallara Waters Boulevard, WALLAN VIC 3756",WALLAN,3756,Vacant land,0,0,0,519.0,"$399,000 - $419,000 ( MUST SELL )",409000.0,-37.434666,144.9885,https://www.domain.com.au/220-wallara-waters-boulevard-wallan-vic-3756-2020323476,2026-03-09
2020324707,"2205 Wallara Waters Boulevard, WALLAN VIC 3756",WALLAN,3756,New House & Land,4,2,2,400.0,"$627,500",627500.0,-37.424873,144.99448,https://www.domain.com.au/2205-wallara-waters-boulevard-wallan-vic-3756-2020324707,2026-03-09
2020327074,"2206 Wallara Waters Boulevard, WALLAN VIC 3756",WALLAN,3756,New House & Land,4,2,2,400.0,"$619,418",619418.0,-37.424873,144.99448,https://www.domain.com.au/2206-wallara-waters-boulevard-wallan-vic-3756-2020327074,2026-03-09
2020330629,"Lot 2205 Wallara Waters Boulevard, WALLAN VIC 3756",WALLAN,3756,New House & Land,4,2,2,400.0,"$672,820 to $682,820",677820.0,-37.424873,144.99448,https://www.domain.com.au/lot-2205-wallara-waters-boulevard-wallan-vic-3756-2020330629,2026-03-09
2020343404,"4 Speckled Warbler Loop, WALLAN VIC 3756",WALLAN,3756,House,4,2,2,305.0,Contact Agent,,-37.407032,144.97937,https://www.domain.com.au/4-speckled-warbler-loop-wallan-vic-3756-2020343404,2026-03-09
2020388201,"Wallara Waters Boulevard, WALLAN VIC 3756",WALLAN,3756,Vacant land,0,0,0,400.0,"$345,000 - $25k off bonus* for a limited time",345000.0,-37.424873,144.99448,https://www.domain.com.au/wallara-waters-boulevard-wallan-vic-3756-2020388201,2026-03-09
2020393795,"86 Eastern Ridge, HIDDEN VALLEY VIC 3756",HIDDEN VALLEY,3756,House,4,3,2,1599.0,"$1,400,000-$1,500,000",1450000.0,-37.40367,145.00908,https://www.domain.com.au/86-eastern-ridge-hidden-valley-vic-3756-2020393795,2026-03-09
2020426339,"Lot: 2206, Wallara Waters Boulevard, WALLAN VIC 3756",WALLAN,3756,New House & Land,4,2,2,400.0,"$662,888",662888.0,-37.406693,144.97983,https://www.domain.com.au/lot-2206-wallara-waters-boulevard-wallan-vic-3756-2020426339,2026-03-09
2020426340,"Lot: 1312, Basil Drive, WALLAN VIC 3756",WALLAN,3756,New House & Land,4,2,2,400.0,"$644,888",644888.0,-37.406693,144.97983,https://www.domain.com.au/lot-1312-basil-drive-wallan-vic-3756-2020426340,2026-03-09
2020426341,"Lot: 1302, Basil Drive, WALLAN VIC 3756",WALLAN,3756,New House & Land,4,2,2,350.0,"$619,888",619888.0,-37.406693,144.97983,https://www.domain.com.au/lot-1302-basil-drive-wallan-vic-3756-2020426341,2026-03-09
2018360140,"40 Richmond Street, WALLAN VIC 3756",WALLAN,3756,Vacant land,0,0,0,512.0,"$340,000 - $360,000",350000.0,-37.430504,144.9921,https://www.domain.com.au/40-richmond-street-wallan-vic-3756-2018360140,2026-03-09
2019144313,"18 William Street, WALLAN VIC 3756",WALLAN,3756,Vacant land,0,0,0,4047.0,"$950,000 - $1,000,000",975000.0,-37.406303,144.97807,https://www.domain.com.au/18-william-street-wallan-vic-3756-2019144313,2026-03-09
2019561043,"119 Dudley Street, WALLAN VIC 3756",WALLAN,3756,Vacant land,0,0,0,2520.0,CONTACT AGENT!!!,,-37.40934,144.97356,https://www.domain.com.au/119-dudley-street-wallan-vic-3756-2019561043,2026-03-09
2019606457,"New/191 William Street, WALLAN VIC 3756",WALLAN,3756,House,6,1,20,0.0,Private Sale - Contact Agent,,-37.407814,144.98997,https://www.domain.com.au/new-191-william-street-wallan-vic-3756-2019606457,2026-03-09
2019662029,"1324 Azalea Lane, WALLAN VIC 3756",WALLAN,3756,New House & Land,4,3,2,350.0,"$732,402",732402.0,-37.406693,144.97983,https://www.domain.com.au/1324-azalea-lane-wallan-vic-3756-2019662029,2026-03-09
2019662033,"2205 Wallara Waters Boulevard, WALLAN VIC 3756",WALLAN,3756,New House & Land,4,2,2,400.0,"$639,301",639301.0,-37.424873,144.99448,https://www.domain.com.au/2205-wallara-waters-boulevard-wallan-vic-3756-2019662033,2026-03-09
2019662037,"2230 Ballad Rise, WALLAN VIC 3756",WALLAN,3756,New House & Land,4,5,2,400.0,"$766,006",766006.0,-37.406693,144.97983,https://www.domain.com.au/2230-ballad-rise-wallan-vic-3756-2019662037,2026-03-09
2019681479,"1331 Daisy Lane, WALLAN VIC 3756",WALLAN,3756,New House & Land,4,2,2,392.0,"$682,101",682101.0,-37.406693,144.97983,https://www.domain.com.au/1331-daisy-lane-wallan-vic-3756-2019681479,2026-03-09
2019693648,"1333 Daisy Lane, WALLAN VIC 3756",WALLAN,3756,New House & Land,4,2,2,350.0,"$627,000",627000.0,-37.406693,144.97983,https://www.domain.com.au/1333-daisy-lane-wallan-vic-3756-2019693648,2026-03-09
2019766564,"23 Cavallo Crescent, WALLAN VIC 3756",WALLAN,3756,Vacant land,0,0,0,1.81,"$900,,000 - $990,000",945000.0,-37.407043,145.00388,https://www.domain.com.au/23-cavallo-crescent-wallan-vic-3756-2019766564,2026-03-09
2019959170,"112 Queen Street, WALLAN VIC 3756",WALLAN,3756,Acreage / Semi-Rural,3,2,10,6905.0,"$1,650,000 - $1,750,000",1700000.0,-37.413177,144.98512,https://www.domain.com.au/112-queen-street-wallan-vic-3756-2019959170,2026-03-09
2019968744,"216 Wallara Waters Boulevard, WALLAN VIC 3756",WALLAN,3756,Vacant land,0,0,0,589.0,"589m2 TITLED LAND , WALLARA WATERS",,-37.432632,144.99112,https://www.domain.com.au/216-wallara-waters-boulevard-wallan-vic-3756-2019968744,2026-03-09
2020142423,"9 Dartmouth St, WALLAN VIC 3756",WALLAN,3756,Vacant land,0,0,0,535.0,$349000 - $379000,364000.0,-37.42528,144.9894,https://www.domain.com.au/9-dartmouth-st-wallan-vic-3756-2020142423,2026-03-09
2020176347,"50 Acres Green Wedge in, WALLAN VIC 3756",WALLAN,3756,Acreage / Semi-Rural,4,3,2,20.23,Contact Agent!,,-37.407032,144.97937,https://www.domain.com.au/50-acres-green-wedge-in-wallan-vic-3756-2020176347,2026-03-09
2020257016,"Lot 2205 Wallara Waters Boulevard, WALLAN VIC 3756",WALLAN,3756,New House & Land,4,2,2,400.0,"$599,566",599566.0,-37.424873,144.99448,https://www.domain.com.au/lot-2205-wallara-waters-boulevard-wallan-vic-3756-2020257016,2026-03-09
2020257126,"Lot 2208 Wallara Waters Boulevard, WALLAN VIC 3756",WALLAN,3756,New House & Land,4,2,2,448.0,"$598,377",598377.0,-37.424873,144.99448,https://www.domain.com.au/lot-2208-wallara-waters-boulevard-wallan-vic-3756-2020257126,2026-03-09
2020257188,"Lot 2214 Wallara Waters Boulevard, WALLAN VIC 3756",WALLAN,3756,New House & Land,4,2,2,535.0,"$612,280",612280.0,-37.424873,144.99448,https://www.domain.com.au/lot-2214-wallara-waters-boulevard-wallan-vic-3756-2020257188,2026-03-09
2020257222,"Lot 2215 Wallara Waters Boulevard, WALLAN VIC 3756",WALLAN,3756,New House & Land,3,2,2,589.0,"$603,050",603050.0,-37.424873,144.99448,https://www.domain.com.au/lot-2215-wallara-waters-boulevard-wallan-vic-3756-2020257222,2026-03-09
2020257248,"Lot 2225 Ballad Rise, WALLAN VIC 3756",WALLAN,3756,New House & Land,4,2,2,400.0,"$591,780",591780.0,-37.406693,144.97983,https://www.domain.com.au/lot-2225-ballad-rise-wallan-vic-3756-2020257248,2026-03-09
2020257272,"Lot 2228 Ballad Rise, WALLAN VIC 3756",WALLAN,3756,New House & Land,4,2,2,400.0,"$609,870",609870.0,-37.406693,144.97983,https://www.domain.com.au/lot-2228-ballad-rise-wallan-vic-3756-2020257272,2026-03-09
2018292322,"Lot 965 Birdwood Crescent, WALLAN VIC 3756",WALLAN,3756,Vacant land,0,0,0,0.0,"$400,000 - $440,000",420000.0,-37.406693,144.97983,https://www.domain.com.au/lot-965-birdwood-crescent-wallan-vic-3756-2018292322,2026-03-09
2020062346,"6a William Street, WALLAN VIC 3756",WALLAN,3756,House,5,2,8,4000.0,"$950,000 - $1,045,000",997500.0,-37.406013,144.97571,https://www.domain.com.au/6a-william-street-wallan-vic-3756-2020062346,2026-03-09
2020079924,"8 William street, WALLAN VIC 3756",WALLAN,3756,Vacant land,0,0,0,2000.0,"$600,000 - $650,000",625000.0,-37.406036,144.9759,https://www.domain.com.au/8-william-street-wallan-vic-3756-2020079924,2026-03-09
2020597330,"108 Raglan Street, WALLAN VIC 3756",WALLAN,3756,House,3,1,2,672.0,"$590,000 - $610,000",600000.0,-37.409565,144.9757,https://www.domain.com.au/108-raglan-street-wallan-vic-3756-2020597330,2026-03-09
2020615266,"1-4/12 Raglan Street, WALLAN VIC 3756",WALLAN,3756,Apartment / Unit / Flat,2,2,2,0.0,"$460,000",460000.0,-37.418247,144.97523,https://www.domain.com.au/1-4-12-raglan-street-wallan-vic-3756-2020615266,2026-03-09
2020619000,"10 Dartmouth Street, WALLAN VIC 3756",WALLAN,3756,House,4,2,2,0.0,"$580,000 - $610,000",595000.0,-37.425404,144.98975,https://www.domain.com.au/10-dartmouth-street-wallan-vic-3756-2020619000,2026-03-09
2020629467,"201 Wallara Waters Boulevard, WALLAN VIC 3756",WALLAN,3756,House,4,2,2,512.0,"$620,000 - $670,000",645000.0,-37.43194,144.99242,https://www.domain.com.au/201-wallara-waters-boulevard-wallan-vic-3756-2020629467,2026-03-09
2020629840,"150 Raglan Street, WALLAN VIC 3756",WALLAN,3756,House,3,1,4,656.0,"$590,000 - $650,000",620000.0,-37.406586,144.97583,https://www.domain.com.au/150-raglan-street-wallan-vic-3756-2020629840,2026-03-09
2020632164,"31A Stanley Street, WALLAN VIC 3756",WALLAN,3756,House,2,1,2,323.0,"$480,000 - $520,000",500000.0,-37.416355,144.97595,https://www.domain.com.au/31a-stanley-street-wallan-vic-3756-2020632164,2026-03-09
2020632615,"92 Ficus Circuit, WALLAN VIC 3756",WALLAN,3756,Vacant land,0,0,0,508.0,"$350,000-$385,000",367500.0,-37.43104,144.99448,https://www.domain.com.au/92-ficus-circuit-wallan-vic-3756-2020632615,2026-03-09
2020633133,"119 High Street, WALLAN VIC 3756",WALLAN,3756,House,4,2,4,1028.0,Call Rady Sandhu!,,-37.409573,144.97919,https://www.domain.com.au/119-high-street-wallan-vic-3756-2020633133,2026-03-09
2020634072,"4 Melville Avenue, WALLAN VIC 3756",WALLAN,3756,House,4,2,2,392.0,"$600,000 - $660,000",630000.0,-37.428707,144.98845,https://www.domain.com.au/4-melville-avenue-wallan-vic-3756-2020634072,2026-03-09
2020639333,"23 Forbes Boulevard, WALLAN VIC 3756",WALLAN,3756,House,3,1,1,411.0,"$475,000 - $505,000",490000.0,-37.41544,144.9862,https://www.domain.com.au/23-forbes-boulevard-wallan-vic-3756-2020639333,2026-03-09
2020641256,"8 Starling Road, WALLAN VIC 3756",WALLAN,3756,Vacant land,0,0,0,506.0,"$390,000",390000.0,-37.430428,144.98582,https://www.domain.com.au/8-starling-road-wallan-vic-3756-2020641256,2026-03-09
2020645894,"18 Mackinac Avenue, WALLAN VIC 3756",WALLAN,3756,House,4,2,2,375.0,"$570,000 to $600,000",585000.0,-37.424976,144.99788,https://www.domain.com.au/18-mackinac-avenue-wallan-vic-3756-2020645894,2026-03-09
2020647544,"6 PINASTER STREET, WALLAN VIC 3756",WALLAN,3756,House,4,2,2,0.0,"$640,000",640000.0,-37.428543,144.99796,https://www.domain.com.au/6-pinaster-street-wallan-vic-3756-2020647544,2026-03-09
2020649226,"29 Raimeno Road, WALLAN VIC 3756",WALLAN,3756,House,4,2,2,417.0,Contact Agent,,-37.41153,144.99055,https://www.domain.com.au/29-raimeno-road-wallan-vic-3756-2020649226,2026-03-09
2020651982,"111-113 High Street, WALLAN VIC 3756",WALLAN,3756,House,4,1,0,2058.0,AUCTION SAT 11AM 28 MARCH,,-37.409943,144.97919,https://www.domain.com.au/111-113-high-street-wallan-vic-3756-2020651982,2026-03-09
2020652381,"28 McCarthy Court, WALLAN VIC 3756",WALLAN,3756,House,4,1,1,677.0,"$580,000 - $620,000",600000.0,-37.419605,144.98784,https://www.domain.com.au/28-mccarthy-court-wallan-vic-3756-2020652381,2026-03-09
2020664242,"186 WALLARA WATERS BOULEVARD, WALLAN VIC 3756",WALLAN,3756,Vacant land,0,0,0,448.0,"$310,000-$340,000",325000.0,-37.432323,144.99084,https://www.domain.com.au/186-wallara-waters-boulevard-wallan-vic-3756-2020664242,2026-03-09
2020526062,"57 Alcantara Boulevard, WALLAN VIC 3756",WALLAN,3756,House,4,2,2,521.0,"$600,000 - $660,000",630000.0,-37.423664,145.00032,https://www.domain.com.au/57-alcantara-boulevard-wallan-vic-3756-2020526062,2026-03-09
2020534315,"3 Warren Avenue, WALLAN VIC 3756",WALLAN,3756,House,4,2,3,642.0,"$645,000 - $685,000",665000.0,-37.424076,144.99274,https://www.domain.com.au/3-warren-avenue-wallan-vic-3756-2020534315,2026-03-09
2020537865,"3/97 Wellington Street, WALLAN VIC 3756",WALLAN,3756,Apartment / Unit / Flat,2,1,1,159.0,"$455,000 - $500,000",477500.0,-37.411186,144.97745,https://www.domain.com.au/3-97-wellington-street-wallan-vic-3756-2020537865,2026-03-09
2020540176,"8 Alcantara Boulevard, WALLAN VIC 3756",WALLAN,3756,House,4,2,2,483.0,"$590,000 to $630,000",610000.0,-37.42407,144.99582,https://www.domain.com.au/8-alcantara-boulevard-wallan-vic-3756-2020540176,2026-03-09
2020542008,"57 WEDDING DRIVE, WALLAN VIC 3756",WALLAN,3756,House,3,2,3,868.0,"$620,000 to $660,000",640000.0,-37.41529,144.98827,https://www.domain.com.au/57-wedding-drive-wallan-vic-3756-2020542008,2026-03-09
2020548988,"9 Crinia street, WALLAN VIC 3756",WALLAN,3756,Vacant land,0,0,0,512.0,"$340,000-$370,000",355000.0,-37.428837,144.98634,https://www.domain.com.au/9-crinia-street-wallan-vic-3756-2020548988,2026-03-09
2020556609,"59 Samson Brook Drive, WALLAN VIC 3756",WALLAN,3756,House,3,2,2,210.0,"$485,000 - $520,000",502500.0,-37.431053,144.99268,https://www.domain.com.au/59-samson-brook-drive-wallan-vic-3756-2020556609,2026-03-09
2020560998,"82 Eastern Ridge, HIDDEN VALLEY VIC 3756",HIDDEN VALLEY,3756,House,3,2,2,1550.0,"$900,000 - $950,000",925000.0,-37.403465,145.00943,https://www.domain.com.au/82-eastern-ridge-hidden-valley-vic-3756-2020560998,2026-03-09
2020570282,"5 Wyatt Way, WALLAN VIC 3756",WALLAN,3756,House,3,2,2,538.0,"$595,000 - $645,000",620000.0,-37.419548,144.9734,https://www.domain.com.au/5-wyatt-way-wallan-vic-3756-2020570282,2026-03-09
2020574554,"33 Princes Circut, WALLAN VIC 3756",WALLAN,3756,House,4,2,2,400.0,"$580,000-$630,000",605000.0,-37.421772,144.99612,https://www.domain.com.au/33-princes-circut-wallan-vic-3756-2020574554,2026-03-09
2020577930,"79 BLUE LAKE DRIVE, WALLAN VIC 3756",WALLAN,3756,Vacant land,0,0,0,0.0,"$330,000 to $360,000",345000.0,-37.429333,144.98741,https://www.domain.com.au/79-blue-lake-drive-wallan-vic-3756-2020577930,2026-03-09
2020577982,"47 Alcantara Boulevard, WALLAN VIC 3756",WALLAN,3756,House,4,2,2,423.0,"$650,000 to $700,000",675000.0,-37.423588,144.99959,https://www.domain.com.au/47-alcantara-boulevard-wallan-vic-3756-2020577982,2026-03-09
2020580198,"38 Princes Cct, WALLAN VIC 3756",WALLAN,3756,House,4,2,2,336.0,"$580,000 - $630,000",605000.0,-37.42276,144.99654,https://www.domain.com.au/38-princes-cct-wallan-vic-3756-2020580198,2026-03-09
2020581659,"56 Dudley Street, WALLAN VIC 3756",WALLAN,3756,House,3,2,0,1065.0,"$670,000 - $720,000",695000.0,-37.41434,144.97394,https://www.domain.com.au/56-dudley-street-wallan-vic-3756-2020581659,2026-03-09
2020587139,", WALLAN VIC 3756",WALLAN,3756,House,2,1,1,0.0,"From $520,000",520000.0,-37.406693,144.97983,https://www.domain.com.au/wallan-vic-3756-2020587139,2026-03-09
2020587140,", WALLAN VIC 3756",WALLAN,3756,House,4,2,2,0.0,"From $690,000",690000.0,-37.406693,144.97983,https://www.domain.com.au/wallan-vic-3756-2020587140,2026-03-09
2020587142,", WALLAN VIC 3756",WALLAN,3756,House,6,3,2,0.0,"From $880,000",880000.0,-37.406693,144.97983,https://www.domain.com.au/wallan-vic-3756-2020587142,2026-03-09
2020587253,"111 Wallara Waters Boulevard, WALLAN VIC 3756",WALLAN,3756,House,4,2,2,426.0,"$590,000 - $630,000",610000.0,-37.42644,144.9945,https://www.domain.com.au/111-wallara-waters-boulevard-wallan-vic-3756-2020587253,2026-03-09
2020590020,"141 Queen Street, WALLAN VIC 3756",WALLAN,3756,House,3,2,2,664.0,"$690,000 - $730,000",710000.0,-37.41424,144.98773,https://www.domain.com.au/141-queen-street-wallan-vic-3756-2020590020,2026-03-09
2020592274,"15 vecchio parkway, WALLAN VIC 3756",WALLAN,3756,Vacant land,0,0,0,315.0,NEST OR INVEST,,-37.425617,144.99672,https://www.domain.com.au/15-vecchio-parkway-wallan-vic-3756-2020592274,2026-03-09
2020110332,"90 Buckland Hill Drive, WALLAN VIC 3756",WALLAN,3756,Vacant land,0,0,0,522.0,Call before it's SOLD !!,,-37.428032,144.99757,https://www.domain.com.au/90-buckland-hill-drive-wallan-vic-3756-2020110332,2026-03-09
2020157042,"29 Pinaster Street, WALLAN VIC 3756",WALLAN,3756,House,4,2,2,0.0,Contact Agent,,-37.429813,144.9981,https://www.domain.com.au/29-pinaster-street-wallan-vic-3756-2020157042,2026-03-09
2020162225,"150 King street, WALLAN VIC 3756",WALLAN,3756,House,3,2,2,3900.0,"ASKING PRICE $1,200,000",1200000.0,-37.41068,144.98973,https://www.domain.com.au/150-king-street-wallan-vic-3756-2020162225,2026-03-09
2020208409,"96 Buckland Hill Drive, WALLAN VIC 3756",WALLAN,3756,House,4,3,2,440.0,Contact Akansha @ 0459 194 135,,-37.42816,144.99802,https://www.domain.com.au/96-buckland-hill-drive-wallan-vic-3756-2020208409,2026-03-09
2020319116,", WALLAN VIC 3756",WALLAN,3756,Vacant land,0,0,0,4227.0,Contact Agent,,-37.406693,144.97983,https://www.domain.com.au/wallan-vic-3756-2020319116,2026-03-09
2020323216,"100 Wallara Waters Bvd, WALLAN VIC 3756",WALLAN,3756,House,4,2,2,720.0,"$790,000 - $850,000",820000.0,-37.425648,144.99393,https://www.domain.com.au/100-wallara-waters-bvd-wallan-vic-3756-2020323216,2026-03-09
2020429143,"1/18 Dudley Street, WALLAN VIC 3756",WALLAN,3756,Apartment / Unit / Flat,3,2,1,0.0,"$465,000 - $495,000",480000.0,-37.41706,144.97363,https://www.domain.com.au/1-18-dudley-street-wallan-vic-3756-2020429143,2026-03-09
2020430323,"7 Nash Court, WALLAN VIC 3756",WALLAN,3756,House,3,2,2,707.0,"$580,000 - $625,000",602500.0,-37.419304,144.97395,https://www.domain.com.au/7-nash-court-wallan-vic-3756-2020430323,2026-03-09
2020433845,"230 WALLARA WATERS BOULEVARD, WALLAN VIC 3756",WALLAN,3756,Vacant land,0,0,0,480.0,"$380,000 to $410,000",395000.0,-37.434525,144.98854,https://www.domain.com.au/230-wallara-waters-boulevard-wallan-vic-3756-2020433845,2026-03-09
2020447711,"31 Princes Circuit, WALLAN VIC 3756",WALLAN,3756,House,4,2,2,400.0,"$580,000 to $600,000",590000.0,-37.421753,144.99599,https://www.domain.com.au/31-princes-circuit-wallan-vic-3756-2020447711,2026-03-09
2020451379,"7 Eden Place, WALLAN VIC 3756",WALLAN,3756,House,5,2,0,6098.0,"$1,800,000 - $2,000,000",1900000.0,-37.41806,144.98497,https://www.domain.com.au/7-eden-place-wallan-vic-3756-2020451379,2026-03-09
2020452117,"1 Coffey Drive, WALLAN VIC 3756",WALLAN,3756,House,3,1,2,627.0,"$550,000-$580,000",565000.0,-37.4209,144.97548,https://www.domain.com.au/1-coffey-drive-wallan-vic-3756-2020452117,2026-03-09
2020463827,"40 Juniperina Cct, WALLAN VIC 3756",WALLAN,3756,House,4,2,2,362.0,"$569,000 - $579,000",574000.0,-37.430428,145.0007,https://www.domain.com.au/40-juniperina-cct-wallan-vic-3756-2020463827,2026-03-09
2020471422,"23 Seafarers Way, WALLAN VIC 3756",WALLAN,3756,House,4,2,2,375.0,"$540,000 - $580,000",560000.0,-37.42299,145.00058,https://www.domain.com.au/23-seafarers-way-wallan-vic-3756-2020471422,2026-03-09
2020474531,"109 William Street, WALLAN VIC 3756",WALLAN,3756,House,4,2,2,6677.0,"$1,400,000 - $1,500,000",1450000.0,-37.40765,144.98552,https://www.domain.com.au/109-william-street-wallan-vic-3756-2020474531,2026-03-09
2020476971,"4 Parkside Rise, WALLAN VIC 3756",WALLAN,3756,House,4,2,4,4112.0,"$1,000,000 - $1,100,000",1050000.0,-37.403645,144.98593,https://www.domain.com.au/4-parkside-rise-wallan-vic-3756-2020476971,2026-03-09
2020485007,"8 Starling Road, WALLAN VIC 3756",WALLAN,3756,Vacant land,0,0,0,506.0,"$390,000",390000.0,-37.430428,144.98582,https://www.domain.com.au/8-starling-road-wallan-vic-3756-2020485007,2026-03-09
2020487305,"243 Wallara Waters Boulevard, WALLAN VIC 3756",WALLAN,3756,Vacant land,0,0,0,453.0,"$320,000 to $335,000",327500.0,-37.43448,144.98918,https://www.domain.com.au/243-wallara-waters-boulevard-wallan-vic-3756-2020487305,2026-03-09
2020498919,"26 Carmelo Court, WALLAN VIC 3756",WALLAN,3756,Vacant land,0,0,0,1090.0,Contact Agent,,-37.40116,144.98369,https://www.domain.com.au/26-carmelo-court-wallan-vic-3756-2020498919,2026-03-09
2020515555,"23 SILVAN STREET, WALLAN VIC 3756",WALLAN,3756,Vacant land,0,0,0,512.0,"$360,000 to $390,000",375000.0,-37.430435,144.98863,https://www.domain.com.au/23-silvan-street-wallan-vic-3756-2020515555,2026-03-09
2018928809,"18 Eden Place, WALLAN VIC 3756",WALLAN,3756,House,4,2,2,2232.0,Call before it's SOLD !!,,-37.419052,144.98221,https://www.domain.com.au/18-eden-place-wallan-vic-3756-2018928809,2026-03-09
2019019220,", WALLAN VIC 3756",WALLAN,3756,Vacant land,0,0,0,479.0,"$330,000 - 350,000",340000.0,-37.427708,144.99614,https://www.domain.com.au/wallan-vic-3756-2019019220,2026-03-09
2019045238,"24A & & 24B Stanley Street, WALLAN VIC 3756",WALLAN,3756,Vacant land,0,0,0,1624.0,"$850,000 to $900,000",875000.0,-37.41707,144.9773,https://www.domain.com.au/24a-24b-stanley-street-wallan-vic-3756-2019045238,2026-03-09
2019097754,"24 Melville Avenue, WALLAN VIC 3756",WALLAN,3756,Vacant land,0,0,0,350.0,"$280,000 - $308,000",294000.0,-37.42988,144.9876,https://www.domain.com.au/24-melville-avenue-wallan-vic-3756-2019097754,2026-03-09
2019334908,", WALLAN VIC 3756",WALLAN,3756,Acreage / Semi-Rural,4,2,0,8093.0,Address Available On Request,,-37.406693,144.97983,https://www.domain.com.au/wallan-vic-3756-2019334908,2026-03-09
2019437066,"1 Carmelo Court, HIDDEN VALLEY VIC 3756",HIDDEN VALLEY,3756,Vacant land,0,0,0,1022.0,"$470,000 - $510,000",490000.0,-37.400005,144.98584,https://www.domain.com.au/1-carmelo-court-hidden-valley-vic-3756-2019437066,2026-03-09
2019551073,"6A & 7 Butler Court, WALLAN VIC 3756",WALLAN,3756,Vacant land,0,0,0,24685.0,CONTACT AGENT,,-37.420437,144.9893,https://www.domain.com.au/6a-7-butler-court-wallan-vic-3756-2019551073,2026-03-09
2019586782,"Kingsley Place Estate, WALLAN VIC 3756",WALLAN,3756,Vacant land,0,0,0,0.0,"From $275,000",275000.0,-37.407032,144.97937,https://www.domain.com.au/kingsley-place-estate-wallan-vic-3756-2019586782,2026-03-09
2019678029,"Lot 1628 Ficus Circuit,, WALLAN VIC 3756",WALLAN,3756,Vacant land,0,0,0,448.0,Price on Application,,-37.407032,144.97937,https://www.domain.com.au/lot-1628-ficus-circuit-wallan-vic-3756-2019678029,2026-03-09
2019861511,"7 Avon Court, WALLAN VIC 3756",WALLAN,3756,House,5,2,2,476.0,"$690,000",690000.0,-37.421616,144.99321,https://www.domain.com.au/7-avon-court-wallan-vic-3756-2019861511,2026-03-09
2019926535,"3 Melville Avenue, WALLAN VIC 3756",WALLAN,3756,Vacant land,0,0,0,512.0,CONTACT AGENT,,-37.428997,144.98865,https://www.domain.com.au/3-melville-avenue-wallan-vic-3756-2019926535,2026-03-09
2019926549,"5 Melville Avenue, WALLAN VIC 3756",WALLAN,3756,Vacant land,0,0,0,576.0,CONTACT AGENT,,-37.42913,144.98856,https://www.domain.com.au/5-melville-avenue-wallan-vic-3756-2019926549,2026-03-09
2019935534,"107 King Street, WALLAN VIC 3756",WALLAN,3756,Vacant land,0,0,0,7000.0,Contact Agent,,-37.410496,144.9847,https://www.domain.com.au/107-king-street-wallan-vic-3756-2019935534,2026-03-09
2019939121,"100-102 Windham Street, WALLAN VIC 3756",WALLAN,3756,House,3,1,6,5986.0,CONTACT AGENT,,-37.41139,144.9827,https://www.domain.com.au/100-102-windham-street-wallan-vic-3756-2019939121,2026-03-09
2019940420,", WALLAN VIC 3756",WALLAN,3756,House,4,2,2,415.0,Taking Offers Now,,-37.406693,144.97983,https://www.domain.com.au/wallan-vic-3756-2019940420,2026-03-09
2020001625,"11 CRINIA STREET, WALLAN VIC 3756",WALLAN,3756,Vacant land,0,0,0,0.0,"$345,000",345000.0,-37.42877,144.98619,https://www.domain.com.au/11-crinia-street-wallan-vic-3756-2020001625,2026-03-09
2020016294,", WALLAN VIC 3756",WALLAN,3756,House,3,2,1,0.0,"$670,000",670000.0,-37.406693,144.97983,https://www.domain.com.au/wallan-vic-3756-2020016294,2026-03-09
2020079585,"11 Danaher Avenue, WALLAN VIC 3756",WALLAN,3756,House,3,2,2,721.0,"$495,000 - $545,000",520000.0,-37.408848,144.97676,https://www.domain.com.au/11-danaher-avenue-wallan-vic-3756-2020079585,2026-03-09
2020081770,"1 Silvan Street, WALLAN VIC 3756",WALLAN,3756,House,4,2,2,493.0,"ESR: $600,000 - $660,000",630000.0,-37.42913,144.98953,https://www.domain.com.au/1-silvan-street-wallan-vic-3756-2020081770,2026-03-09
2020091588,"163 William Street, WALLAN VIC 3756",WALLAN,3756,House,3,1,5,0.0,"$900,000 to $990,000",945000.0,-37.40842,144.99205,https://www.domain.com.au/163-william-street-wallan-vic-3756-2020091588,2026-03-09
2017068282,", WALLAN VIC 3756",WALLAN,3756,Vacant land,0,0,0,3.57,Contact Agent,,-37.406693,144.97983,https://www.domain.com.au/wallan-vic-3756-2017068282,2026-03-09
2017695491,"45 Blue Lake Drive, WALLAN VIC 3756",WALLAN,3756,House,4,2,2,540.0,"$840,000 - $870,000",855000.0,-37.426617,144.98982,https://www.domain.com.au/45-blue-lake-drive-wallan-vic-3756-2017695491,2026-03-09
2017767138,"28 Samson Brook Drive, WALLAN VIC 3756",WALLAN,3756,House,4,2,2,547.0,Price upon Application!!,,-37.430317,144.99133,https://www.domain.com.au/28-samson-brook-drive-wallan-vic-3756-2017767138,2026-03-09
2017804574,", WALLAN VIC 3756",WALLAN,3756,Vacant land,0,0,0,73777.0,Contact Agents,,-37.436966,145.01898,https://www.domain.com.au/wallan-vic-3756-2017804574,2026-03-09
2018070518,"16 Mount Eliza Avenue, WALLAN VIC 3756",WALLAN,3756,House,4,2,2,0.0,Call Before it's SOLD !!,,-37.42906,144.98967,https://www.domain.com.au/16-mount-eliza-avenue-wallan-vic-3756-2018070518,2026-03-09
2018372006,"2235 Wallara Waters Boulevard, WALLAN VIC 3756",WALLAN,3756,Vacant land,0,0,0,512.0,Contact Agent,,-37.426926,144.99411,https://www.domain.com.au/2235-wallara-waters-boulevard-wallan-vic-3756-2018372006,2026-03-09
2018661969,"14 Eden Place, WALLAN VIC 3756",WALLAN,3756,House,3,2,4,4269.0,"$1,390,000 - $1,460,000",1425000.0,-37.419525,144.98349,https://www.domain.com.au/14-eden-place-wallan-vic-3756-2018661969,2026-03-09
2018781681,"135 Raglan Street, WALLAN VIC 3756",WALLAN,3756,Vacant land,0,0,0,975.0,Contact Agent,,-37.408146,144.97502,https://www.domain.com.au/135-raglan-street-wallan-vic-3756-2018781681,2026-03-09
2018789487,"22 Elisha Court, WALLAN VIC 3756",WALLAN,3756,Vacant land,0,0,0,586.0,"$305,000-$335,000",320000.0,-37.412357,144.98863,https://www.domain.com.au/22-elisha-court-wallan-vic-3756-2018789487,2026-03-09
2018798069,"Lot 1647/8 Starling Road, WALLAN VIC 3756",WALLAN,3756,Vacant land,0,0,0,0.0,"$380,000 - $410,000",395000.0,-37.430443,144.98582,https://www.domain.com.au/lot-1647-8-starling-road-wallan-vic-3756-2018798069,2026-03-09
2019404298,"11 Delma Court, BEVERIDGE VIC 3753",BEVERIDGE,3753,Acreage / Semi-Rural,0,0,0,40.87,"$2,000,000-$2,150,000",2075000.0,-37.450882,145.03792,https://www.domain.com.au/11-delma-court-beveridge-vic-3753-2019404298,2026-03-09
2019542748,"10 Munts Road, UPPER PLENTY VIC 3756",UPPER PLENTY,3756,House,3,2,6,82000.0,"$1,785,000",1785000.0,-37.42516,145.05513,https://www.domain.com.au/10-munts-road-upper-plenty-vic-3756-2019542748,2026-03-09
2020295450,"15 Delma Court, BEVERIDGE VIC 3753",BEVERIDGE,3753,Rural,0,0,0,0.0,"FOR SALE $1,650,000",1650000.0,-37.451077,145.03789,https://www.domain.com.au/15-delma-court-beveridge-vic-3753-2020295450,2026-03-09
2020408517,"1180 Wallan Whittlesea Road, UPPER PLENTY VIC 3756",UPPER PLENTY,3756,House,5,3,10,74057.0,"$2,200,000 - $2,290,000",2245000.0,-37.430683,145.06198,https://www.domain.com.au/1180-wallan-whittlesea-road-upper-plenty-vic-3756-2020408517,2026-03-09
2018900915,"421 Break O'Day Road, GLENBURN VIC 3717",GLENBURN,3717,Rural,4,3,3,6.88,"$1,980,000- $2,150,000",2065000.0,-37.410164,145.38199,https://www.domain.com.au/421-break-o-day-road-glenburn-vic-3717-2018900915,2026-03-09
2019918334,"47 Melbourne Road, GISBORNE VIC 3437",GISBORNE,3437,House,4,2,6,25100.0,"$1,995,000 - $2,150,000",2072500.0,-37.493595,144.60538,https://www.domain.com.au/47-melbourne-road-gisborne-vic-3437-2019918334,2026-03-09
2020078719,"1/24 Magnet Lane, NEW GISBORNE VIC 3438",NEW GISBORNE,3438,House,5,3,2,1.01,"$1,495,000",1495000.0,-37.473473,144.60188,https://www.domain.com.au/1-24-magnet-lane-new-gisborne-vic-3438-2020078719,2026-03-09
2020176387,"22 Fersfield Road, GISBORNE VIC 3437",GISBORNE,3437,House,4,2,2,3983.0,"$1,595,000 - $1,650,000",1622500.0,-37.497475,144.60292,https://www.domain.com.au/22-fersfield-road-gisborne-vic-3437-2020176387,2026-03-09
2020181785,"9 Cotton Circuit, GISBORNE VIC 3437",GISBORNE,3437,House,4,2,2,544.0,"$1,050,000 - $1,095,000",1072500.0,-37.502983,144.61052,https://www.domain.com.au/9-cotton-circuit-gisborne-vic-3437-2020181785,2026-03-09
2020302817,"13 Gardiner Street, GISBORNE VIC 3437",GISBORNE,3437,House,4,2,2,936.0,"$805,000 - $850,000",827500.0,-37.495728,144.60017,https://www.domain.com.au/13-gardiner-street-gisborne-vic-3437-2020302817,2026-03-09
2020309515,"23 Chessy Park Drive, NEW GISBORNE VIC 3438",NEW GISBORNE,3438,House,4,2,4,2000.0,"$1,350,000 - $1,395,000",1372500.0,-37.46514,144.60106,https://www.domain.com.au/23-chessy-park-drive-new-gisborne-vic-3438-2020309515,2026-03-09
2020312508,"5 Lauren Court, GISBORNE VIC 3437",GISBORNE,3437,House,4,2,2,1902.0,"$1,050,000 - $1,150,000",1100000.0,-37.498905,144.60057,https://www.domain.com.au/5-lauren-court-gisborne-vic-3437-2020312508,2026-03-09
2020363237,"18 Joseph Avenue, NEW GISBORNE VIC 3438",NEW GISBORNE,3438,House,4,2,2,8000.0,"$1,500,000 - $1,600,000",1550000.0,-37.474495,144.60815,https://www.domain.com.au/18-joseph-avenue-new-gisborne-vic-3438-2020363237,2026-03-09
2020366503,"10 Macedon Close, NEW GISBORNE VIC 3438",NEW GISBORNE,3438,House,5,3,6,2.2,"1,680,000",1680000.0,-37.474358,144.63097,https://www.domain.com.au/10-macedon-close-new-gisborne-vic-3438-2020366503,2026-03-09
2020495814,"151 Wheelwrights Road, RIDDELLS CREEK VIC 3431",RIDDELLS CREEK,3431,House,3,1,6,65963.0,"Private sale $1,780,000",1780000.0,-37.458004,144.65138,https://www.domain.com.au/151-wheelwrights-road-riddells-creek-vic-3431-2020495814,2026-03-09
2020508079,"35 Magnet Lane, NEW GISBORNE VIC 3438",NEW GISBORNE,3438,House,5,3,3,6179.0,"$1,850,000-$2,035,000",1942500.0,-37.474102,144.60199,https://www.domain.com.au/35-magnet-lane-new-gisborne-vic-3438-2020508079,2026-03-09
2020510319,"31 Murray Road, GISBORNE VIC 3437",GISBORNE,3437,Specialist Farm,4,2,2,59.21,Under Contract!,,-37.489014,144.6507,https://www.domain.com.au/31-murray-road-gisborne-vic-3437-2020510319,2026-03-09
2020561643,"178 Peters Road, GISBORNE VIC 3437",GISBORNE,3437,Rural,4,2,6,28.63,"$1,795,000 - $1,850,000",1822500.0,-37.49273,144.63959,https://www.domain.com.au/178-peters-road-gisborne-vic-3437-2020561643,2026-03-09
2020590509,"6 Jacksons Creek Way, GISBORNE VIC 3437",GISBORNE,3437,House,3,2,3,2063.0,"$1,300,000 to $1,400,000",1350000.0,-37.484615,144.60085,https://www.domain.com.au/6-jacksons-creek-way-gisborne-vic-3437-2020590509,2026-03-09
2020592168,"114 Emmeline Drive, GISBORNE VIC 3437",GISBORNE,3437,House,3,2,3,2.51,"$1,675,000 - $1,750,000",1712500.0,-37.49569,144.61221,https://www.domain.com.au/114-emmeline-drive-gisborne-vic-3437-2020592168,2026-03-09
2020617313,"2 Sansom Street, GISBORNE VIC 3437",GISBORNE,3437,House,4,3,3,1102.0,"$700,000 - $750,000",725000.0,-37.49594,144.60085,https://www.domain.com.au/2-sansom-street-gisborne-vic-3437-2020617313,2026-03-09
2020621895,"37 Cotton Circuit, GISBORNE VIC 3437",GISBORNE,3437,House,4,3,2,1004.0,"$1,150,000 -$1,225,000",1187500.0,-37.50499,144.61255,https://www.domain.com.au/37-cotton-circuit-gisborne-vic-3437-2020621895,2026-03-09
2020632822,"13 Jacksons Creek Way, GISBORNE VIC 3437",GISBORNE,3437,House,5,2,2,1491.0,"$1,050,000 - $1,150,000",1100000.0,-37.485897,144.60066,https://www.domain.com.au/13-jacksons-creek-way-gisborne-vic-3437-2020632822,2026-03-09
2020638749,"54 Joseph Avenue, NEW GISBORNE VIC 3438",NEW GISBORNE,3438,House,6,3,6,6393.0,"$1,695,000 - $1,795,000",1745000.0,-37.476162,144.61052,https://www.domain.com.au/54-joseph-avenue-new-gisborne-vic-3438-2020638749,2026-03-09
2020661318,"9 Willowbank Road, GISBORNE VIC 3437",GISBORNE,3437,House,4,2,3,1514.0,"$2,000,000-$2,200,000",2100000.0,-37.50246,144.61046,https://www.domain.com.au/9-willowbank-road-gisborne-vic-3437-2020661318,2026-03-09
2018563734,"7 Kilteely Street, GISBORNE VIC 3437",GISBORNE,3437,New House & Land,4,2,2,800.0,"From $1,232,972",1232972.0,-37.506474,144.61203,https://www.domain.com.au/7-kilteely-street-gisborne-vic-3437-2018563734,2026-03-09
2019391495,"465 Hamilton Road, NEW GISBORNE VIC 3438",NEW GISBORNE,3438,Vacant land,0,0,0,373403.0,"$1,850,000 - $1,950,000",1900000.0,-37.460045,144.6341,https://www.domain.com.au/465-hamilton-road-new-gisborne-vic-3438-2019391495,2026-03-09
2019569171,"64 Willowbank Road, GISBORNE VIC 3437",GISBORNE,3437,Vacant land,0,0,0,0.0,"$505,000 - $550,000",527500.0,-37.501186,144.60248,https://www.domain.com.au/64-willowbank-road-gisborne-vic-3437-2019569171,2026-03-09
2019588895,"13 Kumbari Court, NEW GISBORNE VIC 3438",NEW GISBORNE,3438,House,4,3,4,8316.0,"$1,895,000 - $1,950,000",1922500.0,-37.477947,144.60751,https://www.domain.com.au/13-kumbari-court-new-gisborne-vic-3438-2019588895,2026-03-09
2019712866,"250 Hamilton Road, NEW GISBORNE VIC 3438",NEW GISBORNE,3438,Rural,5,3,4,5.34,Contact Agent,,-37.45846,144.60849,https://www.domain.com.au/250-hamilton-road-new-gisborne-vic-3438-2019712866,2026-03-09
2019823381,"12 Wilson Place, GISBORNE VIC 3437",GISBORNE,3437,House,5,2,5,2171.0,"$1,675,000 - $1,725,000",1700000.0,-37.496902,144.60767,https://www.domain.com.au/12-wilson-place-gisborne-vic-3437-2019823381,2026-03-09
2020173751,"29 Melbourne Road, GISBORNE VIC 3437",GISBORNE,3437,Vacant land,1,1,0,38.3,"$2,000,000 - $2,100,000",2050000.0,-37.49303,144.60146,https://www.domain.com.au/29-melbourne-road-gisborne-vic-3437-2020173751,2026-03-09
2020283438,"32 Buckland Boulevard, GISBORNE VIC 3437",GISBORNE,3437,Vacant land,0,0,0,674.0,"$575,000 - $595,000",585000.0,-37.50606,144.60588,https://www.domain.com.au/32-buckland-boulevard-gisborne-vic-3437-2020283438,2026-03-09
2020338062,"355 McGeorge Road, GISBORNE VIC 3437",GISBORNE,3437,House,4,2,2,840.0,"$1,120,000 - $1,170,000",1145000.0,-37.506496,144.6086,https://www.domain.com.au/355-mcgeorge-road-gisborne-vic-3437-2020338062,2026-03-09
2020377535,"14 May Drive, GISBORNE VIC 3437",GISBORNE,3437,House,4,2,2,400.0,"$850,000 - $870,000",860000.0,-37.50407,144.61076,https://www.domain.com.au/14-may-drive-gisborne-vic-3437-2020377535,2026-03-09
2020440487,"10 Misty View Court, GISBORNE VIC 3437",GISBORNE,3437,Vacant land,0,0,0,10300.0,"$890,000 - $979,000",934500.0,-37.499546,144.63515,https://www.domain.com.au/10-misty-view-court-gisborne-vic-3437-2020440487,2026-03-09
2020467201,"22 Vancleve Crescent, GISBORNE VIC 3437",GISBORNE,3437,House,4,2,2,765.0,"$995,000",995000.0,-37.50249,144.60234,https://www.domain.com.au/22-vancleve-crescent-gisborne-vic-3437-2020467201,2026-03-09
2020467603,"5 Richey Promenade, GISBORNE VIC 3437",GISBORNE,3437,Vacant land,0,0,0,839.0,"$675,000",675000.0,-37.505913,144.60797,https://www.domain.com.au/5-richey-promenade-gisborne-vic-3437-2020467603,2026-03-09
2020495809,"Saunders Rise, NEW GISBORNE VIC 3438",NEW GISBORNE,3438,Vacant land,0,0,0,6000.0,"$895,000",895000.0,-37.47242,144.60834,https://www.domain.com.au/saunders-rise-new-gisborne-vic-3438-2020495809,2026-03-09
2020537196,"44 & 46 Tasman Road, GISBORNE VIC 3437",GISBORNE,3437,Vacant land,0,0,0,991.0,"$560,000 - $590,000",575000.0,-37.506252,144.60503,https://www.domain.com.au/44-46-tasman-road-gisborne-vic-3437-2020537196,2026-03-09
2020599315,"22 Willowbank Road, GISBORNE VIC 3437",GISBORNE,3437,Vacant land,0,0,0,3001.0,"$895,000 - $920,000",907500.0,-37.50185,144.60811,https://www.domain.com.au/22-willowbank-road-gisborne-vic-3437-2020599315,2026-03-09
2020611438,"17 Cotton Circuit, GISBORNE VIC 3437",GISBORNE,3437,House,5,3,4,0.0,"$2,150,000 - $2,350,000",2250000.0,-37.5031,144.61151,https://www.domain.com.au/17-cotton-circuit-gisborne-vic-3437-2020611438,2026-03-09
2020629882,"25 Dalray Crescent, NEW GISBORNE VIC 3438",NEW GISBORNE,3438,House,4,2,2,984.0,"$895,000 - $950,000",922500.0,-37.465576,144.60194,https://www.domain.com.au/25-dalray-crescent-new-gisborne-vic-3438-2020629882,2026-03-09
2020632626,"84 Payne Road, NEW GISBORNE VIC 3438",NEW GISBORNE,3438,Acreage / Semi-Rural,4,2,0,6.6,PRIVATE SALE | EXPRESSION OF INTEREST,,-37.46419,144.61176,https://www.domain.com.au/84-payne-road-new-gisborne-vic-3438-2020632626,2026-03-09
2020659198,"20 Outlook Way, GISBORNE VIC 3437",GISBORNE,3437,Vacant land,0,0,0,4.07,"$1,100,000 - $1,200,000",1150000.0,-37.50119,144.62303,https://www.domain.com.au/20-outlook-way-gisborne-vic-3437-2020659198,2026-03-09
2019895418,"2 Campbell Road, GISBORNE VIC 3437",GISBORNE,3437,Vacant land,0,0,0,890308.0,Contact Agent,,-37.476543,144.63719,https://www.domain.com.au/2-campbell-road-gisborne-vic-3437-2019895418,2026-03-09
2020200128,"112 Murray ROAD, GISBORNE VIC 3437",GISBORNE,3437,Vacant land,0,0,0,366645.0,CONTACT AGENT,,-37.49323,144.6514,https://www.domain.com.au/112-murray-road-gisborne-vic-3437-2020200128,2026-03-09
2020274568,"1-29/51 Coop Drive, GISBORNE VIC 3437",GISBORNE,3437,Vacant land,0,0,0,967.0,Contact Agent,,-37.50343,144.60037,https://www.domain.com.au/1-29-51-coop-drive-gisborne-vic-3437-2020274568,2026-03-09
2020357148,"388 McGeorge Road, GISBORNE VIC 3437",GISBORNE,3437,House,4,2,4,799.0,"$1,050,000-$1,100,000",1075000.0,-37.50341,144.60962,https://www.domain.com.au/388-mcgeorge-road-gisborne-vic-3437-2020357148,2026-03-09
2020460124,"241 Sheedy Road, GISBORNE VIC 3437",GISBORNE,3437,House,5,2,4,2563.0,"$2,100,000 - $2,310,000",2205000.0,-37.49876,144.60764,https://www.domain.com.au/241-sheedy-road-gisborne-vic-3437-2020460124,2026-03-09
2018923498,"Lot 2/10 Butters Close, RIDDELLS CREEK VIC 3431",RIDDELLS CREEK,3431,Vacant land,0,0,0,2008.0,"$590,000",590000.0,-37.46208,144.66801,https://www.domain.com.au/lot-2-10-butters-close-riddells-creek-vic-3431-2018923498,2026-03-09
2020182054,"8 McCluskey Street, RIDDELLS CREEK VIC 3431",RIDDELLS CREEK,3431,Vacant land,0,0,0,2000.0,"$550,000- $590,000",570000.0,-37.462196,144.66875,https://www.domain.com.au/8-mccluskey-street-riddells-creek-vic-3431-2020182054,2026-03-09
2020182061,"10 McCluskey Street, RIDDELLS CREEK VIC 3431",RIDDELLS CREEK,3431,Vacant land,0,0,0,2010.0,"$520,000- $560,000",540000.0,-37.462196,144.6691,https://www.domain.com.au/10-mccluskey-street-riddells-creek-vic-3431-2020182061,2026-03-09
2020188461,"16 Southbourne Road, RIDDELLS CREEK VIC 3431",RIDDELLS CREEK,3431,Vacant land,0,0,0,2083.0,"$910,000 - 1,000,000",955000.0,-37.459522,144.69066,https://www.domain.com.au/16-southbourne-road-riddells-creek-vic-3431-2020188461,2026-03-09
2020203927,"64 Whittakers Lane, RIDDELLS CREEK VIC 3431",RIDDELLS CREEK,3431,House,4,2,3,8839.0,"$2,000,000 - $2,200,000",2100000.0,-37.45681,144.67479,https://www.domain.com.au/64-whittakers-lane-riddells-creek-vic-3431-2020203927,2026-03-09
2020205719,"140 Palmer Road, SUNBURY VIC 3429",SUNBURY,3429,Acreage / Semi-Rural,5,3,18,18.62,"$2,350,000-$2,550,000",2450000.0,-37.49485,144.70352,https://www.domain.com.au/140-palmer-road-sunbury-vic-3429-2020205719,2026-03-09
2020281300,"69 Bolithos Road, RIDDELLS CREEK VIC 3431",RIDDELLS CREEK,3431,Vacant land,4,2,2,1.03,"Price Range $880,000 -$940,000",910000.0,-37.459377,144.67526,https://www.domain.com.au/69-bolithos-road-riddells-creek-vic-3431-2020281300,2026-03-09
2020357538,"30 View Bank Lane, RIDDELLS CREEK VIC 3431",RIDDELLS CREEK,3431,House,4,2,2,56655.0,Expression of Interest close - 31st March 3:00pm,,-37.49304,144.67987,https://www.domain.com.au/30-view-bank-lane-riddells-creek-vic-3431-2020357538,2026-03-09
2020370462,"52 Williams Lane, RIDDELLS CREEK VIC 3431",RIDDELLS CREEK,3431,House,3,3,3,33400.0,"$3,000,000 - $3,300,000",3150000.0,-37.462578,144.6604,https://www.domain.com.au/52-williams-lane-riddells-creek-vic-3431-2020370462,2026-03-09
2020436309,"163 Main Road, RIDDELLS CREEK VIC 3431",RIDDELLS CREEK,3431,House,3,1,0,49100.0,CONTACT AGENT!,,-37.454338,144.68813,https://www.domain.com.au/163-main-road-riddells-creek-vic-3431-2020436309,2026-03-09
2020437943,"41 Stokes Lane W, RIDDELLS CREEK VIC 3431",RIDDELLS CREEK,3431,House,5,4,10,16.23,"2,700,000 - $2,950,000",2825000.0,-37.467583,144.6961,https://www.domain.com.au/41-stokes-lane-w-riddells-creek-vic-3431-2020437943,2026-03-09
2020515722,"9 Wattle Grove, RIDDELLS CREEK VIC 3431",RIDDELLS CREEK,3431,House,4,2,2,900.0,"$1,150,000",1150000.0,-37.461742,144.6914,https://www.domain.com.au/9-wattle-grove-riddells-creek-vic-3431-2020515722,2026-03-09
2020551530,"10 Rivergum Road, RIDDELLS CREEK VIC 3431",RIDDELLS CREEK,3431,House,5,2,2,4433.0,"$1,450,000 - $1,595,000",1522500.0,-37.46508,144.66908,https://www.domain.com.au/10-rivergum-road-riddells-creek-vic-3431-2020551530,2026-03-09
2020561266,"159 Main Road, RIDDELLS CREEK VIC 3431",RIDDELLS CREEK,3431,Vacant land,0,0,0,2675.0,"$1,200,000",1200000.0,-37.455456,144.68683,https://www.domain.com.au/159-main-road-riddells-creek-vic-3431-2020561266,2026-03-09
2020562096,"85 Palmer Road, SUNBURY VIC 3429",SUNBURY,3429,House,6,4,10,68796.0,"$1,495,000 - $1,640,000",1567500.0,-37.497112,144.69594,https://www.domain.com.au/85-palmer-road-sunbury-vic-3429-2020562096,2026-03-09
2020623304,"8 Eucalypt Court, RIDDELLS CREEK VIC 3431",RIDDELLS CREEK,3431,House,4,2,3,943.0,"$890,000 - $940,000",915000.0,-37.45667,144.68042,https://www.domain.com.au/8-eucalypt-court-riddells-creek-vic-3431-2020623304,2026-03-09
2020658977,"3 Parkview Terrace, RIDDELLS CREEK VIC 3431",RIDDELLS CREEK,3431,House,4,2,2,950.0,"$995,000 - $1,090,000",1042500.0,-37.459503,144.69185,https://www.domain.com.au/3-parkview-terrace-riddells-creek-vic-3431-2020658977,2026-03-09
2018942143,"490 Settlement Road, SUNBURY VIC 3429",SUNBURY,3429,Acreage / Semi-Rural,4,3,4,213.67,"$6,950,000",6950000.0,-37.50604,144.72939,https://www.domain.com.au/490-settlement-road-sunbury-vic-3429-2018942143,2026-03-09
2020282765,"115 Sullivans Road, SUNBURY VIC 3429",SUNBURY,3429,House,3,2,6,16.19,"$1,580,000 - $1,650,000",1615000.0,-37.491886,144.72195,https://www.domain.com.au/115-sullivans-road-sunbury-vic-3429-2020282765,2026-03-09
2020422213,"1086 Settlement Rd, CLARKEFIELD VIC 3430",CLARKEFIELD,3430,Acreage / Semi-Rural,4,2,2,8.05,CONTACT AGENT,,-37.492653,144.75482,https://www.domain.com.au/1086-settlement-rd-clarkefield-vic-3430-2020422213,2026-03-09
2020477991,"107 Stokes Lane East, RIDDELLS CREEK VIC 3431",RIDDELLS CREEK,3431,House,5,3,8,247900.0,"$2,500,000 - $2,750,000",2625000.0,-37.475426,144.71284,https://www.domain.com.au/107-stokes-lane-east-riddells-creek-vic-3431-2020477991,2026-03-09
2020610877,"600 Settlement Road, SUNBURY VIC 3429",SUNBURY,3429,House,3,2,8,14.16,"$1,990,000 - $2,180,000",2085000.0,-37.50046,144.74446,https://www.domain.com.au/600-settlement-road-sunbury-vic-3429-2020610877,2026-03-09
2019577978,", CLARKEFIELD VIC 3430",CLARKEFIELD,3430,Vacant land,0,0,0,80.94,Contact Agent,,-37.491085,144.79324,https://www.domain.com.au/clarkefield-vic-3430-2019577978,2026-03-09
2019748445,"Lot 15 Cherrington Drive, CLARKEFIELD VIC 3430",CLARKEFIELD,3430,Acreage / Semi-Rural,0,0,0,19.02,"$1,250,000 - SETTLEMENT 6 MONTHS",1250000.0,-37.48187,144.80319,https://www.domain.com.au/lot-15-cherrington-drive-clarkefield-vic-3430-2019748445,2026-03-09
2019888397,"9/549 Heaths Lane, BOLINDA VIC 3432",BOLINDA,3432,Specialist Farm,0,0,0,40.47,Price on Application,,-37.458755,144.80392,https://www.domain.com.au/9-549-heaths-lane-bolinda-vic-3432-2019888397,2026-03-09
2020039129,"4A/549 Heaths Lane, BOLINDA VIC 3432",BOLINDA,3432,Acreage / Semi-Rural,1,1,0,44.52,Price on Application,,-37.458755,144.80392,https://www.domain.com.au/4a-549-heaths-lane-bolinda-vic-3432-2020039129,2026-03-09
2020131585,"472 Boggy Gate Road, CLARKEFIELD VIC 3430",CLARKEFIELD,3430,Acreage / Semi-Rural,3,1,2,40.71,CONTACT AGENT,,-37.465305,144.80273,https://www.domain.com.au/472-boggy-gate-road-clarkefield-vic-3430-2020131585,2026-03-09
2020631124,"1206 Melbourne Lancefield Road, CLARKEFIELD VIC 3430",CLARKEFIELD,3430,Mixed Farming,3,1,0,0.0,POA,,-37.489613,144.76012,https://www.domain.com.au/1206-melbourne-lancefield-road-clarkefield-vic-3430-2020631124,2026-03-09
2019350972,"140 Outlook Crescent, CLARKEFIELD VIC 3430",CLARKEFIELD,3430,Acreage / Semi-Rural,10,5,0,61.11,CONTACT AGENT,,-37.5032,144.83846,https://www.domain.com.au/140-outlook-crescent-clarkefield-vic-3430-2019350972,2026-03-09
5378,"Lot 624 Lithgow Rd, BEVERIDGE VIC 3753",BEVERIDGE,3753,N/A,0,0,0,0.0,N/A,,-37.473175,144.97081,https://www.domain.com.au/project/5378/stockland-lyra-beveridge-vic/,2026-03-09
6398,"Bellarine/49 Lithgow Street, BEVERIDGE VIC 3753",BEVERIDGE,3753,N/A,0,0,0,0.0,N/A,,-37.473175,144.97081,https://www.domain.com.au/project/6398/springside-beveridge-vic/,2026-03-09
2019690951,"Beechworth/49 Lithgow Street, BEVERIDGE VIC 3753",BEVERIDGE,3753,Unknown,3,2,1,0.0,"$556,000",556000.0,-37.473175,144.97081,https://www.domain.com.au/beechworth-49-lithgow-street-beveridge-vic-3753-2019690951,2026-03-09
2019690952,"Bellarine/49 Lithgow Street, BEVERIDGE VIC 3753",BEVERIDGE,3753,Unknown,3,2,2,0.0,"$677,000",677000.0,-37.473175,144.97081,https://www.domain.com.au/bellarine-49-lithgow-street-beveridge-vic-3753-2019690952,2026-03-09
2019690954,"Milawa/49 Lithgow Street, BEVERIDGE VIC 3753",BEVERIDGE,3753,Unknown,3,2,2,0.0,"$699,000",699000.0,-37.473175,144.97081,https://www.domain.com.au/milawa-49-lithgow-street-beveridge-vic-3753-2019690954,2026-03-09
2019690956,"Heathcote/49 Lithgow Street, BEVERIDGE VIC 3753",BEVERIDGE,3753,Unknown,3,2,2,0.0,"$662,000",662000.0,-37.473175,144.97081,https://www.domain.com.au/heathcote-49-lithgow-street-beveridge-vic-3753-2019690956,2026-03-09
2019694936,"27 Beacon Close, BEVERIDGE VIC 3753",BEVERIDGE,3753,Vacant land,0,0,0,601.0,"$460,000 to $480,000",470000.0,-37.471725,144.95041,https://www.domain.com.au/27-beacon-close-beveridge-vic-3753-2019694936,2026-03-09
2020411737,"68 Palm Circuit, BEVERIDGE VIC 3753",BEVERIDGE,3753,House,4,2,2,392.0,"$590,000 - $649,000",619500.0,-37.471996,144.96996,https://www.domain.com.au/68-palm-circuit-beveridge-vic-3753-2020411737,2026-03-09
2020436066,"4 Grace Court, BEVERIDGE VIC 3753",BEVERIDGE,3753,House,4,2,3,544.0,"4 Living Areas, Alfresco & Much More.",,-37.47981,144.94077,https://www.domain.com.au/4-grace-court-beveridge-vic-3753-2020436066,2026-03-09
2020485267,"22 Mallaig Drive, BEVERIDGE VIC 3753",BEVERIDGE,3753,House,4,2,2,313.0,"$590,000 - $640,000",615000.0,-37.474613,144.96852,https://www.domain.com.au/22-mallaig-drive-beveridge-vic-3753-2020485267,2026-03-09
2020492962,"14 Raven Circuit, BEVERIDGE VIC 3753",BEVERIDGE,3753,New House & Land,4,2,2,375.0,"From $703,425",703425.0,-37.468773,144.96509,https://www.domain.com.au/14-raven-circuit-beveridge-vic-3753-2020492962,2026-03-09
2020493101,"10 Raven Circuit, BEVERIDGE VIC 3753",BEVERIDGE,3753,New House & Land,4,2,2,420.0,"From $722,423",722423.0,-37.469017,144.96504,https://www.domain.com.au/10-raven-circuit-beveridge-vic-3753-2020493101,2026-03-09
2020493126,"11 Raven Circuit, BEVERIDGE VIC 3753",BEVERIDGE,3753,New House & Land,4,2,2,436.0,"From $976,269",976269.0,-37.46888,144.9647,https://www.domain.com.au/11-raven-circuit-beveridge-vic-3753-2020493126,2026-03-09
2020536512,"4 Ayre Street, BEVERIDGE VIC 3753",BEVERIDGE,3753,House,4,2,2,0.0,"$650k-$680k, Taking Offers Now",,-37.48116,144.9664,https://www.domain.com.au/4-ayre-street-beveridge-vic-3753-2020536512,2026-03-09
2020562997,"6 Oleander Circuit, BEVERIDGE VIC 3753",BEVERIDGE,3753,House,4,2,1,0.0,Contact Agent,,-37.46843,144.96141,https://www.domain.com.au/6-oleander-circuit-beveridge-vic-3753-2020562997,2026-03-09
2020565892,"26 Liberty Crescent, BEVERIDGE VIC 3753",BEVERIDGE,3753,House,4,2,2,441.0,"$680,000",680000.0,-37.479153,144.93965,https://www.domain.com.au/26-liberty-crescent-beveridge-vic-3753-2020565892,2026-03-09
2020603239,"18 Bushranger Cct, BEVERIDGE VIC 3753",BEVERIDGE,3753,House,4,2,2,0.0,Taking offers Now !!,,-37.473293,144.96774,https://www.domain.com.au/18-bushranger-cct-beveridge-vic-3753-2020603239,2026-03-09
2020620133,"Lot 417 Raven Circuit, Alkyra, BEVERIDGE VIC 3753",BEVERIDGE,3753,New House & Land,4,2,2,389.0,"$658,990",658990.0,-37.47121,144.96501,https://www.domain.com.au/lot-417-raven-circuit-alkyra-beveridge-vic-3753-2020620133,2026-03-09
2020644876,"Lot 624 Lithgow Rd, BEVERIDGE VIC 3753",BEVERIDGE,3753,New House & Land,4,2,2,392.0,"$672,913",672913.0,-37.473175,144.97081,https://www.domain.com.au/lot-624-lithgow-rd-beveridge-vic-3753-2020644876,2026-03-09
2020650621,"40 Rhapsody Road, BEVERIDGE VIC 3753",BEVERIDGE,3753,House,4,2,2,570.0,"$550,000 - $600,000",575000.0,-37.476578,144.94533,https://www.domain.com.au/40-rhapsody-road-beveridge-vic-3753-2020650621,2026-03-09
2020657770,"5708 Mandalay, BEVERIDGE VIC 3753",BEVERIDGE,3753,House,4,2,2,350.0,"$639,800",639800.0,-37.480415,144.9457,https://www.domain.com.au/5708-mandalay-beveridge-vic-3753-2020657770,2026-03-09
2020657773,"521 Timbarra, BEVERIDGE VIC 3753",BEVERIDGE,3753,House,4,2,2,406.0,"$684,600",684600.0,-37.470947,144.96579,https://www.domain.com.au/521-timbarra-beveridge-vic-3753-2020657773,2026-03-09
2020658606,"521 Timbarra, BEVERIDGE VIC 3753",BEVERIDGE,3753,House,4,2,2,406.0,"$721,300",721300.0,-37.470947,144.96579,https://www.domain.com.au/521-timbarra-beveridge-vic-3753-2020658606,2026-03-09
2020658658,"521 Timbarra, BEVERIDGE VIC 3753",BEVERIDGE,3753,House,4,2,2,406.0,"$734,300",734300.0,-37.470947,144.96579,https://www.domain.com.au/521-timbarra-beveridge-vic-3753-2020658658,2026-03-09
2020661065,"LOT 405 ALKYRA ESTATE, BEVERIDGE VIC 3753",BEVERIDGE,3753,New House & Land,4,2,2,350.0,"$585,316",585316.0,-37.47121,144.96501,https://www.domain.com.au/lot-405-alkyra-estate-beveridge-vic-3753-2020661065,2026-03-09
2019699378,"29 Beacon Close, BEVERIDGE VIC 3753",BEVERIDGE,3753,Vacant land,0,0,0,533.0,"$390,000 $429,000",409500.0,-37.471783,144.95024,https://www.domain.com.au/29-beacon-close-beveridge-vic-3753-2019699378,2026-03-09
2020567877,"5333 Ball Street, BEVERIDGE VIC 3753",BEVERIDGE,3753,New House & Land,4,2,2,393.0,"$619,816",619816.0,-37.469315,144.94423,https://www.domain.com.au/5333-ball-street-beveridge-vic-3753-2020567877,2026-03-09
2020569608,"6429 Beacon Close, BEVERIDGE VIC 3753",BEVERIDGE,3753,New House & Land,4,2,2,388.0,"$614,866",614866.0,-37.471542,144.95049,https://www.domain.com.au/6429-beacon-close-beveridge-vic-3753-2020569608,2026-03-09
2020576773,"5217 Stance Street, BEVERIDGE VIC 3753",BEVERIDGE,3753,New House & Land,4,2,2,392.0,"$634,250",634250.0,-37.468636,144.94463,https://www.domain.com.au/5217-stance-street-beveridge-vic-3753-2020576773,2026-03-09
2020605337,"Lot 516 Austral St, BEVERIDGE VIC 3753",BEVERIDGE,3753,New House & Land,4,2,2,448.0,"$717,205",717205.0,-37.470722,144.96622,https://www.domain.com.au/lot-516-austral-st-beveridge-vic-3753-2020605337,2026-03-09
2020615053,"Lot 404 Alkyra Estate, BEVERIDGE VIC 3753",BEVERIDGE,3753,New House & Land,3,2,2,294.0,"$546,100",546100.0,-37.47121,144.96501,https://www.domain.com.au/lot-404-alkyra-estate-beveridge-vic-3753-2020615053,2026-03-09
2020615073,"Lot 404 Alkyra Estate, BEVERIDGE VIC 3753",BEVERIDGE,3753,New House & Land,4,2,2,294.0,"$566,150",566150.0,-37.47121,144.96501,https://www.domain.com.au/lot-404-alkyra-estate-beveridge-vic-3753-2020615073,2026-03-09
2020616607,"404 Raven Circuit, BEVERIDGE VIC 3753",BEVERIDGE,3753,New House & Land,3,2,2,294.0,"$544,100",544100.0,-37.46894,144.96402,https://www.domain.com.au/404-raven-circuit-beveridge-vic-3753-2020616607,2026-03-09
2020625602,"Lot 5205 Domain Drive, BEVERIDGE VIC 3753",BEVERIDGE,3753,New House & Land,4,2,2,392.0,"$654,752",654752.0,-37.470474,144.94044,https://www.domain.com.au/lot-5205-domain-drive-beveridge-vic-3753-2020625602,2026-03-09
2020625606,"Lot 5205 Domain Drive, BEVERIDGE VIC 3753",BEVERIDGE,3753,New House & Land,4,2,2,392.0,"$644,640",644640.0,-37.470474,144.94044,https://www.domain.com.au/lot-5205-domain-drive-beveridge-vic-3753-2020625606,2026-03-09
2020625614,"Lot 5320 Atherton Street, BEVERIDGE VIC 3753",BEVERIDGE,3753,New House & Land,4,2,2,448.0,"$691,547",691547.0,-37.469967,144.94424,https://www.domain.com.au/lot-5320-atherton-street-beveridge-vic-3753-2020625614,2026-03-09
2020625620,"Lot 5332 Ambient Cresent, BEVERIDGE VIC 3753",BEVERIDGE,3753,New House & Land,4,2,2,389.0,"$644,718",644718.0,-37.46801,144.94572,https://www.domain.com.au/lot-5332-ambient-cresent-beveridge-vic-3753-2020625620,2026-03-09
2020625623,"Lot 5332 Ambient Cresent, BEVERIDGE VIC 3753",BEVERIDGE,3753,New House & Land,4,2,2,389.0,"$639,920",639920.0,-37.46801,144.94572,https://www.domain.com.au/lot-5332-ambient-cresent-beveridge-vic-3753-2020625623,2026-03-09
2020634023,"Lot 405 Raven Circuit, BEVERIDGE VIC 3753",BEVERIDGE,3753,New House & Land,4,2,2,350.0,"$599,920",599920.0,-37.46894,144.96402,https://www.domain.com.au/lot-405-raven-circuit-beveridge-vic-3753-2020634023,2026-03-09
2020643642,"Lot 1635 Lewis Street, BEVERIDGE VIC 3753",BEVERIDGE,3753,New House & Land,4,2,2,361.0,"$648,240",648240.0,-37.477257,144.9656,https://www.domain.com.au/lot-1635-lewis-street-beveridge-vic-3753-2020643642,2026-03-09
2020645661,"Lot 405 Alkyra Estate, BEVERIDGE VIC 3753",BEVERIDGE,3753,New House & Land,4,2,2,350.0,"$571,427",571427.0,-37.47121,144.96501,https://www.domain.com.au/lot-405-alkyra-estate-beveridge-vic-3753-2020645661,2026-03-09
2020650638,"521 Timbarra, BEVERIDGE VIC 3753",BEVERIDGE,3753,House,4,2,2,406.0,"$684,600",684600.0,-37.470947,144.96579,https://www.domain.com.au/521-timbarra-beveridge-vic-3753-2020650638,2026-03-09
2020653395,"Lot 5332 Atherton Street, BEVERIDGE VIC 3753",BEVERIDGE,3753,New House & Land,4,2,2,389.0,"$676,250",676250.0,-37.469967,144.94424,https://www.domain.com.au/lot-5332-atherton-street-beveridge-vic-3753-2020653395,2026-03-09
2020657750,"5708 Mandalay, BEVERIDGE VIC 3753",BEVERIDGE,3753,House,4,2,2,350.0,"$666,200",666200.0,-37.480415,144.9457,https://www.domain.com.au/5708-mandalay-beveridge-vic-3753-2020657750,2026-03-09
2020657772,"521 Timbarra, BEVERIDGE VIC 3753",BEVERIDGE,3753,House,3,2,2,406.0,"$661,900",661900.0,-37.470947,144.96579,https://www.domain.com.au/521-timbarra-beveridge-vic-3753-2020657772,2026-03-09
2020472248,"Lot 409 Raven Circuit (Alkyra), BEVERIDGE VIC 3753",BEVERIDGE,3753,New House & Land,4,2,2,406.0,"$589,417",589417.0,-37.47121,144.96501,https://www.domain.com.au/lot-409-raven-circuit-alkyra-beveridge-vic-3753-2020472248,2026-03-09
2020472266,"Lot 438 Raven Circuit (Alkyra), BEVERIDGE VIC 3753",BEVERIDGE,3753,New House & Land,4,2,2,438.0,"$613,708",613708.0,-37.47121,144.96501,https://www.domain.com.au/lot-438-raven-circuit-alkyra-beveridge-vic-3753-2020472266,2026-03-09
2020520498,"22 Echidna Drive, BEVERIDGE VIC 3753",BEVERIDGE,3753,House,4,2,2,326.0,"$635,000",635000.0,-37.475124,144.9603,https://www.domain.com.au/22-echidna-drive-beveridge-vic-3753-2020520498,2026-03-09
2020526641,"Lot 1638 Lewis Street, BEVERIDGE VIC 3753",BEVERIDGE,3753,New House & Land,4,2,2,323.0,"$594,427",594427.0,-37.477257,144.9656,https://www.domain.com.au/lot-1638-lewis-street-beveridge-vic-3753-2020526641,2026-03-09
2020526679,"Lot 419 Alkyra Estate, BEVERIDGE VIC 3753",BEVERIDGE,3753,New House & Land,4,2,2,436.0,"$636,640",636640.0,-37.47121,144.96501,https://www.domain.com.au/lot-419-alkyra-estate-beveridge-vic-3753-2020526679,2026-03-09
2020536963,"43 Mallaig Drive, BEVERIDGE VIC 3753",BEVERIDGE,3753,House,4,2,2,0.0,"$590,000 - $630,000",610000.0,-37.476963,144.96858,https://www.domain.com.au/43-mallaig-drive-beveridge-vic-3753-2020536963,2026-03-09
2020541430,"5516 Ambient Crescent, BEVERIDGE VIC 3753",BEVERIDGE,3753,New House & Land,5,5,2,555.0,"$1,065,500",1065500.0,-37.46801,144.94572,https://www.domain.com.au/5516-ambient-crescent-beveridge-vic-3753-2020541430,2026-03-09
2020542295,"43 Whiteside Street, BEVERIDGE VIC 3753",BEVERIDGE,3753,Vacant land,0,0,0,428.0,"Private Sale $399,900 - $425,000",412450.0,-37.476482,144.96013,https://www.domain.com.au/43-whiteside-street-beveridge-vic-3753-2020542295,2026-03-09
2020543215,"Lot 438 Alkyra Estate, BEVERIDGE VIC 3753",BEVERIDGE,3753,New House & Land,4,2,2,418.0,"$590,427",590427.0,-37.47121,144.96501,https://www.domain.com.au/lot-438-alkyra-estate-beveridge-vic-3753-2020543215,2026-03-09
2020549884,"11 Ringtail Place, BEVERIDGE VIC 3753",BEVERIDGE,3753,House,4,2,2,400.0,"$770,000",770000.0,-37.480133,144.95924,https://www.domain.com.au/11-ringtail-place-beveridge-vic-3753-2020549884,2026-03-09
2020551005,"Lot 5701 Mandalay estate, BEVERIDGE VIC 3753",BEVERIDGE,3753,New House & Land,4,2,2,350.0,"$593,427",593427.0,-37.480415,144.9457,https://www.domain.com.au/lot-5701-mandalay-estate-beveridge-vic-3753-2020551005,2026-03-09
2020551017,"Lot 5703 Mandalay estate, BEVERIDGE VIC 3753",BEVERIDGE,3753,New House & Land,4,2,2,392.0,"$638,240",638240.0,-37.480415,144.9457,https://www.domain.com.au/lot-5703-mandalay-estate-beveridge-vic-3753-2020551017,2026-03-09
2020551030,"Lot 5701 Mandalay estate, BEVERIDGE VIC 3753",BEVERIDGE,3753,New House & Land,4,3,2,350.0,"$766,000",766000.0,-37.480415,144.9457,https://www.domain.com.au/lot-5701-mandalay-estate-beveridge-vic-3753-2020551030,2026-03-09
2020551033,"Lot 5634 Mandalay Estate, BEVERIDGE VIC 3753",BEVERIDGE,3753,New House & Land,4,2,2,443.0,"$649,640",649640.0,-37.480415,144.9457,https://www.domain.com.au/lot-5634-mandalay-estate-beveridge-vic-3753-2020551033,2026-03-09
2020551035,"Lot 6429 Mandalay Estate, BEVERIDGE VIC 3753",BEVERIDGE,3753,New House & Land,4,2,2,388.0,"$608,427",608427.0,-37.480415,144.9457,https://www.domain.com.au/lot-6429-mandalay-estate-beveridge-vic-3753-2020551035,2026-03-09
2020567807,"Lot 157 Egret Street, BEVERIDGE VIC 3753",BEVERIDGE,3753,New House & Land,4,2,2,294.0,"$591,640",591640.0,-37.47108,144.96452,https://www.domain.com.au/lot-157-egret-street-beveridge-vic-3753-2020567807,2026-03-09
2020567808,"Lot 155 Egret Street, BEVERIDGE VIC 3753",BEVERIDGE,3753,New House & Land,4,2,2,350.0,"$608,320",608320.0,-37.47108,144.96452,https://www.domain.com.au/lot-155-egret-street-beveridge-vic-3753-2020567808,2026-03-09
2020567872,"5222 Ambient Crescent, BEVERIDGE VIC 3753",BEVERIDGE,3753,New House & Land,4,2,2,401.0,"$608,790",608790.0,-37.46801,144.94572,https://www.domain.com.au/5222-ambient-crescent-beveridge-vic-3753-2020567872,2026-03-09
2020567873,"5305 Ambient Crescent, BEVERIDGE VIC 3753",BEVERIDGE,3753,New House & Land,4,2,2,400.0,"$622,730",622730.0,-37.46801,144.94572,https://www.domain.com.au/5305-ambient-crescent-beveridge-vic-3753-2020567873,2026-03-09
2020567874,"5330 Ambient Crescent, BEVERIDGE VIC 3753",BEVERIDGE,3753,New House & Land,4,2,2,393.0,"$646,020",646020.0,-37.46801,144.94572,https://www.domain.com.au/5330-ambient-crescent-beveridge-vic-3753-2020567874,2026-03-09
2020390380,"LOT 418 RAVEN CIRCUIT (ALKYRA ESTATE), BEVERIDGE VIC 3753",BEVERIDGE,3753,New House & Land,4,2,2,389.0,"$615,146",615146.0,-37.47121,144.96501,https://www.domain.com.au/lot-418-raven-circuit-alkyra-estate-beveridge-vic-3753-2020390380,2026-03-09
2020405432,"Lot 426 Raven Circuit, BEVERIDGE VIC 3753",BEVERIDGE,3753,New land,0,0,0,375.0,"$331,000",331000.0,-37.46894,144.96402,https://www.domain.com.au/lot-426-raven-circuit-beveridge-vic-3753-2020405432,2026-03-09
2020405433,"Lot 419 Raven Circuit, BEVERIDGE VIC 3753",BEVERIDGE,3753,New land,0,0,0,436.0,"$356,000",356000.0,-37.46894,144.96402,https://www.domain.com.au/lot-419-raven-circuit-beveridge-vic-3753-2020405433,2026-03-09
2020413633,"Lot 418 Raven Circuit, BEVERIDGE VIC 3753",BEVERIDGE,3753,New House & Land,4,2,2,389.0,"$594,376",594376.0,-37.46894,144.96402,https://www.domain.com.au/lot-418-raven-circuit-beveridge-vic-3753-2020413633,2026-03-09
2020413660,"Lot 418 Raven Circuit, BEVERIDGE VIC 3753",BEVERIDGE,3753,New House & Land,4,2,2,389.0,"$608,420",608420.0,-37.46894,144.96402,https://www.domain.com.au/lot-418-raven-circuit-beveridge-vic-3753-2020413660,2026-03-09
2020414529,"29 Wattlebird Street, BEVERIDGE VIC 3753",BEVERIDGE,3753,New House & Land,4,2,2,360.0,"$595,100",595100.0,-37.470562,144.96268,https://www.domain.com.au/29-wattlebird-street-beveridge-vic-3753-2020414529,2026-03-09
2020415936,"LOT 418 ALKYRA ESTATE, BEVERIDGE VIC 3753",BEVERIDGE,3753,New House & Land,4,2,2,389.0,"$615,350",615350.0,-37.47121,144.96501,https://www.domain.com.au/lot-418-alkyra-estate-beveridge-vic-3753-2020415936,2026-03-09
2020444518,"Lot 5205 Mandalay Living Estate, BEVERIDGE VIC 3753",BEVERIDGE,3753,New House & Land,4,2,2,392.0,"$668,692",668692.0,-37.47136,144.95264,https://www.domain.com.au/lot-5205-mandalay-living-estate-beveridge-vic-3753-2020444518,2026-03-09
2020458591,"Lot 32 Constable Street, BEVERIDGE VIC 3753",BEVERIDGE,3753,New House & Land,3,2,1,315.0,"$523,818",523818.0,-37.474648,144.9666,https://www.domain.com.au/lot-32-constable-street-beveridge-vic-3753-2020458591,2026-03-09
2020458671,"417 Raven Circuit, BEVERIDGE VIC 3753",BEVERIDGE,3753,New House & Land,4,2,2,389.0,"$581,830",581830.0,-37.46894,144.96402,https://www.domain.com.au/417-raven-circuit-beveridge-vic-3753-2020458671,2026-03-09
2020458677,"426 Raven Circuit, BEVERIDGE VIC 3753",BEVERIDGE,3753,New House & Land,4,2,2,375.0,"$586,876",586876.0,-37.46894,144.96402,https://www.domain.com.au/426-raven-circuit-beveridge-vic-3753-2020458677,2026-03-09
2020458734,"23 Fountain Drive, BEVERIDGE VIC 3753",BEVERIDGE,3753,House,5,2,2,420.0,"$680,000 - $730,000",705000.0,-37.466484,144.93991,https://www.domain.com.au/23-fountain-drive-beveridge-vic-3753-2020458734,2026-03-09
2020459365,"3 Dingo Road, BEVERIDGE VIC 3753",BEVERIDGE,3753,House,3,3,1,352.0,"Asking: $619,950",619950.0,-37.478004,144.96278,https://www.domain.com.au/3-dingo-road-beveridge-vic-3753-2020459365,2026-03-09
2020461526,"LOT 521 Timbarra Estate, BEVERIDGE VIC 3753",BEVERIDGE,3753,New House & Land,4,2,2,406.0,"$636,900",636900.0,-37.470947,144.96579,https://www.domain.com.au/lot-521-timbarra-estate-beveridge-vic-3753-2020461526,2026-03-09
2020463085,"LOT 418 ALKYRA ESTATE, BEVERIDGE VIC 3753",BEVERIDGE,3753,New House & Land,4,2,2,389.0,"$601,306",601306.0,-37.47121,144.96501,https://www.domain.com.au/lot-418-alkyra-estate-beveridge-vic-3753-2020463085,2026-03-09
2020463106,"LOT 425 ALKYRA ESTATE, BEVERIDGE VIC 3753",BEVERIDGE,3753,New House & Land,4,2,2,413.0,"$599,857",599857.0,-37.47121,144.96501,https://www.domain.com.au/lot-425-alkyra-estate-beveridge-vic-3753-2020463106,2026-03-09
2020463739,"Lot 438 Alkyra Estate, BEVERIDGE VIC 3753",BEVERIDGE,3753,New House & Land,4,2,2,418.0,"$597,418",597418.0,-37.47121,144.96501,https://www.domain.com.au/lot-438-alkyra-estate-beveridge-vic-3753-2020463739,2026-03-09
2020463867,"Lot 5212 Ambient Crescent, BEVERIDGE VIC 3753",BEVERIDGE,3753,New House & Land,4,2,2,415.0,"$650,230",650230.0,-37.46801,144.94572,https://www.domain.com.au/lot-5212-ambient-crescent-beveridge-vic-3753-2020463867,2026-03-09
2020472205,"Lot 425 raven Circuit (Alkyra ), BEVERIDGE VIC 3753",BEVERIDGE,3753,New House & Land,4,2,2,413.0,"$594,866",594866.0,-37.47121,144.96501,https://www.domain.com.au/lot-425-raven-circuit-alkyra-beveridge-vic-3753-2020472205,2026-03-09
2020472222,"Lot 420 Raven Circuit (Alkyra), BEVERIDGE VIC 3753",BEVERIDGE,3753,New House & Land,4,2,2,420.0,"$628,630",628630.0,-37.47121,144.96501,https://www.domain.com.au/lot-420-raven-circuit-alkyra-beveridge-vic-3753-2020472222,2026-03-09
2020310766,"Lot 428 Raven Circuit, BEVERIDGE VIC 3753",BEVERIDGE,3753,New House & Land,4,2,2,420.0,"$634,252",634252.0,-37.46894,144.96402,https://www.domain.com.au/lot-428-raven-circuit-beveridge-vic-3753-2020310766,2026-03-09
2020310795,"Lot 428 Raven Circuit, BEVERIDGE VIC 3753",BEVERIDGE,3753,New House & Land,4,2,2,420.0,"$643,111",643111.0,-37.46894,144.96402,https://www.domain.com.au/lot-428-raven-circuit-beveridge-vic-3753-2020310795,2026-03-09
2020310832,"Lot 428 Raven Circuit, BEVERIDGE VIC 3753",BEVERIDGE,3753,New House & Land,4,2,2,420.0,"$635,829",635829.0,-37.46894,144.96402,https://www.domain.com.au/lot-428-raven-circuit-beveridge-vic-3753-2020310832,2026-03-09
2020311678,"33 Trooper Road, BEVERIDGE VIC 3753",BEVERIDGE,3753,New House & Land,4,2,2,313.0,"$542,105",542105.0,-37.474167,144.96681,https://www.domain.com.au/33-trooper-road-beveridge-vic-3753-2020311678,2026-03-09
2020313565,"LOT 5212 AMBIENT CRESCENT, BEVERIDGE VIC 3753",BEVERIDGE,3753,New House & Land,4,2,2,415.0,"$602,230",602230.0,-37.46801,144.94572,https://www.domain.com.au/lot-5212-ambient-crescent-beveridge-vic-3753-2020313565,2026-03-09
2020313620,"LOT 6429 BEACON CLOSE, BEVERIDGE VIC 3753",BEVERIDGE,3753,New House & Land,4,2,2,388.0,"$609,356",609356.0,-37.471542,144.95049,https://www.domain.com.au/lot-6429-beacon-close-beveridge-vic-3753-2020313620,2026-03-09
2020314377,"LOT 2101 Malliag Drive, BEVERIDGE VIC 3753",BEVERIDGE,3753,New House & Land,4,2,2,408.0,"$658,291",658291.0,-37.475212,144.96867,https://www.domain.com.au/lot-2101-malliag-drive-beveridge-vic-3753-2020314377,2026-03-09
2020314399,"LOT 2102 Malliag Drive, BEVERIDGE VIC 3753",BEVERIDGE,3753,New House & Land,4,2,2,431.0,"$675,596",675596.0,-37.475212,144.96867,https://www.domain.com.au/lot-2102-malliag-drive-beveridge-vic-3753-2020314399,2026-03-09
2020315603,"417 Raven Circuit, BEVERIDGE VIC 3753",BEVERIDGE,3753,New House & Land,4,2,2,389.0,"$596,156",596156.0,-37.46894,144.96402,https://www.domain.com.au/417-raven-circuit-beveridge-vic-3753-2020315603,2026-03-09
2020315605,"418 Raven Circuit, BEVERIDGE VIC 3753",BEVERIDGE,3753,New House & Land,4,2,2,389.0,"$614,708",614708.0,-37.46894,144.96402,https://www.domain.com.au/418-raven-circuit-beveridge-vic-3753-2020315605,2026-03-09
2020315606,"431 Raven Circuit, BEVERIDGE VIC 3753",BEVERIDGE,3753,New House & Land,4,2,2,375.0,"$576,427",576427.0,-37.46894,144.96402,https://www.domain.com.au/431-raven-circuit-beveridge-vic-3753-2020315606,2026-03-09
2020315612,"428 Raven Circuit, BEVERIDGE VIC 3753",BEVERIDGE,3753,New House & Land,4,2,2,420.0,"$619,250",619250.0,-37.46894,144.96402,https://www.domain.com.au/428-raven-circuit-beveridge-vic-3753-2020315612,2026-03-09
2020315613,"429 Raven Circuit, BEVERIDGE VIC 3753",BEVERIDGE,3753,New House & Land,4,2,2,420.0,"$625,680",625680.0,-37.46894,144.96402,https://www.domain.com.au/429-raven-circuit-beveridge-vic-3753-2020315613,2026-03-09
2020320086,"1540 Spinosa Road, BEVERIDGE VIC 3753",BEVERIDGE,3753,New House & Land,4,2,2,366.0,"$621,876",621876.0,-37.480724,144.96385,https://www.domain.com.au/1540-spinosa-road-beveridge-vic-3753-2020320086,2026-03-09
2020321112,"LOT 521 Timbarra Estate, BEVERIDGE VIC 3753",BEVERIDGE,3753,New House & Land,4,2,2,406.0,"$636,900",636900.0,-37.470947,144.96579,https://www.domain.com.au/lot-521-timbarra-estate-beveridge-vic-3753-2020321112,2026-03-09
2020323827,"436 Malcolm Street, BEVERIDGE VIC 3753",BEVERIDGE,3753,New House & Land,4,2,2,350.0,"$562,830",562830.0,-37.470703,144.96552,https://www.domain.com.au/436-malcolm-street-beveridge-vic-3753-2020323827,2026-03-09
2020339643,"429 Raven Circuit, BEVERIDGE VIC 3753",BEVERIDGE,3753,New House & Land,4,2,2,420.0,"$648,790",648790.0,-37.46894,144.96402,https://www.domain.com.au/429-raven-circuit-beveridge-vic-3753-2020339643,2026-03-09
2020348732,"2 Horizon Way, BEVERIDGE VIC 3753",BEVERIDGE,3753,Vacant land,0,0,0,403.0,Contact Agent,,-37.467747,144.94887,https://www.domain.com.au/2-horizon-way-beveridge-vic-3753-2020348732,2026-03-09
2020348753,"43 Leadbeater Circuit, BEVERIDGE VIC 3753",BEVERIDGE,3753,Vacant land,0,0,0,529.0,Contact Agent,,-37.480453,144.95677,https://www.domain.com.au/43-leadbeater-circuit-beveridge-vic-3753-2020348753,2026-03-09
2020390378,"LOT 417 RAVEN CIRCUIT (ALKYRA ESTATE), BEVERIDGE VIC 3753",BEVERIDGE,3753,New House & Land,4,2,2,389.0,"$630,804",630804.0,-37.47121,144.96501,https://www.domain.com.au/lot-417-raven-circuit-alkyra-estate-beveridge-vic-3753-2020390378,2026-03-09
2020172568,"58 Trooper Road, BEVERIDGE VIC 3753",BEVERIDGE,3753,New House & Land,4,2,2,353.0,"$573,427",573427.0,-37.473866,144.96686,https://www.domain.com.au/58-trooper-road-beveridge-vic-3753-2020172568,2026-03-09
2020176885,"LOT 533 Timbarra Estate, BEVERIDGE VIC 3753",BEVERIDGE,3753,New House & Land,4,2,2,351.0,"$586,698",586698.0,-37.470947,144.96579,https://www.domain.com.au/lot-533-timbarra-estate-beveridge-vic-3753-2020176885,2026-03-09
2020177100,"207 Croft Street, BEVERIDGE VIC 3753",BEVERIDGE,3753,New House & Land,4,2,2,325.0,"$563,332",563332.0,-37.479645,144.96658,https://www.domain.com.au/207-croft-street-beveridge-vic-3753-2020177100,2026-03-09
2020177532,"LOT 530 Timbarra Estate, BEVERIDGE VIC 3753",BEVERIDGE,3753,New House & Land,4,2,2,448.0,"$678,847",678847.0,-37.470947,144.96579,https://www.domain.com.au/lot-530-timbarra-estate-beveridge-vic-3753-2020177532,2026-03-09
2020200904,"14 Balmore St, BEVERIDGE VIC 3753",BEVERIDGE,3753,Vacant land,0,0,0,0.0,"$350,000 - $385,000",367500.0,-37.480495,144.96667,https://www.domain.com.au/14-balmore-st-beveridge-vic-3753-2020200904,2026-03-09
2020214333,"432 Malcolm Street, BEVERIDGE VIC 3753",BEVERIDGE,3753,New House & Land,3,2,2,350.0,"$552,400",552400.0,-37.470703,144.96552,https://www.domain.com.au/432-malcolm-street-beveridge-vic-3753-2020214333,2026-03-09
2020214406,"434 Malcolm Street, BEVERIDGE VIC 3753",BEVERIDGE,3753,New House & Land,4,2,2,350.0,"$556,830",556830.0,-37.470703,144.96552,https://www.domain.com.au/434-malcolm-street-beveridge-vic-3753-2020214406,2026-03-09
2020240994,"LOT 432 Malcolm Street, BEVERIDGE VIC 3753",BEVERIDGE,3753,New House & Land,4,2,2,350.0,"$579,919",579919.0,-37.470703,144.96552,https://www.domain.com.au/lot-432-malcolm-street-beveridge-vic-3753-2020240994,2026-03-09
2020241037,"LOT 433 Malcolm Street, BEVERIDGE VIC 3753",BEVERIDGE,3753,New House & Land,4,2,2,350.0,"$583,421",583421.0,-37.470703,144.96552,https://www.domain.com.au/lot-433-malcolm-street-beveridge-vic-3753-2020241037,2026-03-09
2020257834,"LOT 432 ALKYRA ESTATE, BEVERIDGE VIC 3753",BEVERIDGE,3753,New House & Land,4,2,2,350.0,"$576,306",576306.0,-37.47121,144.96501,https://www.domain.com.au/lot-432-alkyra-estate-beveridge-vic-3753-2020257834,2026-03-09
2020257835,"LOT 417 ALKYRA ESTATE, BEVERIDGE VIC 3753",BEVERIDGE,3753,New House & Land,4,2,2,389.0,"$615,350",615350.0,-37.47121,144.96501,https://www.domain.com.au/lot-417-alkyra-estate-beveridge-vic-3753-2020257835,2026-03-09
2020280228,"LOT 430 ALKYRA ESTATE, BEVERIDGE VIC 3753",BEVERIDGE,3753,New House & Land,4,2,2,375.0,"$606,360",606360.0,-37.47121,144.96501,https://www.domain.com.au/lot-430-alkyra-estate-beveridge-vic-3753-2020280228,2026-03-09
2020280256,"LOT 431 ALKYRA ESTATE, BEVERIDGE VIC 3753",BEVERIDGE,3753,New House & Land,4,2,2,375.0,"$592,316",592316.0,-37.47121,144.96501,https://www.domain.com.au/lot-431-alkyra-estate-beveridge-vic-3753-2020280256,2026-03-09
2020296953,"Lot 59 Trooper Road, BEVERIDGE VIC 3753",BEVERIDGE,3753,New House & Land,3,2,2,310.0,"$583,020 To $593,020",588020.0,-37.474045,144.9674,https://www.domain.com.au/lot-59-trooper-road-beveridge-vic-3753-2020296953,2026-03-09
2020310526,"Lot 431 Raven Circuit, BEVERIDGE VIC 3753",BEVERIDGE,3753,New House & Land,4,2,2,375.0,"$593,918",593918.0,-37.46894,144.96402,https://www.domain.com.au/lot-431-raven-circuit-beveridge-vic-3753-2020310526,2026-03-09
2020310553,"Lot 431 Raven Circuit, BEVERIDGE VIC 3753",BEVERIDGE,3753,New House & Land,3,2,2,375.0,"$574,900",574900.0,-37.46894,144.96402,https://www.domain.com.au/lot-431-raven-circuit-beveridge-vic-3753-2020310553,2026-03-09
2020310569,"Lot 431 Raven Circuit, BEVERIDGE VIC 3753",BEVERIDGE,3753,New House & Land,3,2,2,375.0,"$573,730",573730.0,-37.46894,144.96402,https://www.domain.com.au/lot-431-raven-circuit-beveridge-vic-3753-2020310569,2026-03-09
2020310624,"Lot 429 Raven Circuit, BEVERIDGE VIC 3753",BEVERIDGE,3753,New House & Land,4,2,2,420.0,"$626,740",626740.0,-37.46894,144.96402,https://www.domain.com.au/lot-429-raven-circuit-beveridge-vic-3753-2020310624,2026-03-09
2020310685,"Lot 429 Raven Circuit, BEVERIDGE VIC 3753",BEVERIDGE,3753,New House & Land,4,2,2,420.0,"$604,290",604290.0,-37.46894,144.96402,https://www.domain.com.au/lot-429-raven-circuit-beveridge-vic-3753-2020310685,2026-03-09
2020310743,"Lot 429 Raven Circuit, BEVERIDGE VIC 3753",BEVERIDGE,3753,New House & Land,4,2,2,420.0,"$623,750",623750.0,-37.46894,144.96402,https://www.domain.com.au/lot-429-raven-circuit-beveridge-vic-3753-2020310743,2026-03-09
2011780829,"Lot: 1404, Perch Street, BEVERIDGE VIC 3753",BEVERIDGE,3753,New House & Land,3,2,1,356.0,"$560,710",560710.0,-37.48092,144.96214,https://www.domain.com.au/lot-1404-perch-street-beveridge-vic-3753-2011780829,2026-03-09
2018508052,"Mandalay Cct, BEVERIDGE VIC 3753",BEVERIDGE,3753,Vacant land,0,0,0,411.0,Contact Agent,,-37.480415,144.9457,https://www.domain.com.au/mandalay-cct-beveridge-vic-3753-2018508052,2026-03-09
